[
  {
    "HALTESTELLEN_ID": 214460106,
    "TYP": "stop",
    "DIVA": 60200001,
    "NAME": "Absberggasse",
    "GEMEINDE": "Wien",
    "GEMEINDE_ID": 90001,
    "WGS84_LAT": 48.1738010728644,
    "WGS84_LON": 16.3898072745249,
    "STAND": ""
  },
  {
    "HALTESTELLEN_ID": 214460107,
    "TYP": "stop",
    "DIVA": 60200002,
    "NAME": "Achengasse",
    "GEMEINDE": "Wien",
    "GEMEINDE_ID": 90001,
    "WGS84_LAT": 48.2845258075837,
    "WGS84_LON": 16.4488984539143,
    "STAND": ""
  },
  {
    "HALTESTELLEN_ID": 214460108,
    "TYP": "stop",
    "DIVA": 60200003,
    "NAME": "Ada-Christen-Gasse",
    "GEMEINDE": "Wien",
    "GEMEINDE_ID": 90001,
    "WGS84_LAT": 48.1528655583657,
    "WGS84_LON": 16.385953501956,
    "STAND": ""
  },
  {
    "HALTESTELLEN_ID": 214460109,
    "TYP": "stop",
    "DIVA": 60200004,
    "NAME": "Adam-Betz-Gasse",
    "GEMEINDE": "Wien",
    "GEMEINDE_ID": 90001,
    "WGS84_LAT": 48.21561055503,
    "WGS84_LON": 16.5351906201068,
    "STAND": ""
  },
  {
    "HALTESTELLEN_ID": 214460110,
    "TYP": "stop",
    "DIVA": 60200005,
    "NAME": "Adamovichgasse",
    "GEMEINDE": "Wien",
    "GEMEINDE_ID": 90001,
    "WGS84_LAT": 48.1421668131238,
    "WGS84_LON": 16.3378397353386,
    "STAND": ""
  },
  {
    "HALTESTELLEN_ID": 214460111,
    "TYP": "stop",
    "DIVA": 60200006,
    "NAME": "Adolf-Loos-Gasse",
    "GEMEINDE": "Wien",
    "GEMEINDE_ID": 90001,
    "WGS84_LAT": 48.2775553604276,
    "WGS84_LON": 16.4542254635491,
    "STAND": ""
  },
  {
    "HALTESTELLEN_ID": 214460112,
    "TYP": "stop",
    "DIVA": 60200007,
    "NAME": "Adolf-Unger-Gasse",
    "GEMEINDE": "Wien",
    "GEMEINDE_ID": 90001,
    "WGS84_LAT": 48.1486762313686,
    "WGS84_LON": 16.3858816367333,
    "STAND": ""
  },
  {
    "HALTESTELLEN_ID": 214460113,
    "TYP": "stop",
    "DIVA": 60200008,
    "NAME": "Afritschgasse",
    "GEMEINDE": "Wien",
    "GEMEINDE_ID": 90001,
    "WGS84_LAT": 48.246960234718,
    "WGS84_LON": 16.4517371302121,
    "STAND": ""
  },
  {
    "HALTESTELLEN_ID": 214460114,
    "TYP": "stop",
    "DIVA": 60200009,
    "NAME": "Agavenweg",
    "GEMEINDE": "Wien",
    "GEMEINDE_ID": 90001,
    "WGS84_LAT": 48.2510697532962,
    "WGS84_LON": 16.5071991158536,
    "STAND": ""
  },
  {
    "HALTESTELLEN_ID": 214460115,
    "TYP": "stop",
    "DIVA": 60200010,
    "NAME": "Neustift, Agnesgasse",
    "GEMEINDE": "Wien",
    "GEMEINDE_ID": 90001,
    "WGS84_LAT": 48.2504297189845,
    "WGS84_LON": 16.3075934597223,
    "STAND": ""
  },
  {
    "HALTESTELLEN_ID": 214460116,
    "TYP": "stop",
    "DIVA": 60200011,
    "NAME": "Aignerstraße",
    "GEMEINDE": "Wien",
    "GEMEINDE_ID": 90001,
    "WGS84_LAT": 48.246110773392,
    "WGS84_LON": 16.3749760891841,
    "STAND": ""
  },
  {
    "HALTESTELLEN_ID": 214460117,
    "TYP": "stop",
    "DIVA": 60200012,
    "NAME": "Auf der Schmelz",
    "GEMEINDE": "Wien",
    "GEMEINDE_ID": 90001,
    "WGS84_LAT": 48.2035239231532,
    "WGS84_LON": 16.3166484777862,
    "STAND": ""
  },
  {
    "HALTESTELLEN_ID": 214460118,
    "TYP": "stop",
    "DIVA": 60200013,
    "NAME": "Morzinplatz",
    "GEMEINDE": "Wien",
    "GEMEINDE_ID": 90001,
    "WGS84_LAT": 48.2131144413282,
    "WGS84_LON": 16.3744909989306,
    "STAND": ""
  },
  {
    "HALTESTELLEN_ID": 214460119,
    "TYP": "stop",
    "DIVA": 60200014,
    "NAME": "Alaudagasse",
    "GEMEINDE": "Wien",
    "GEMEINDE_ID": 90001,
    "WGS84_LAT": 48.1538903631184,
    "WGS84_LON": 16.3823243082082,
    "STAND": ""
  },
  {
    "HALTESTELLEN_ID": 214460120,
    "TYP": "stop",
    "DIVA": 60200015,
    "NAME": "Albern",
    "GEMEINDE": "Wien",
    "GEMEINDE_ID": 90001,
    "WGS84_LAT": 48.1600507462881,
    "WGS84_LON": 16.4849298799603,
    "STAND": ""
  },
  {
    "HALTESTELLEN_ID": 214460121,
    "TYP": "stop",
    "DIVA": 60200016,
    "NAME": "Alberner Hafen",
    "GEMEINDE": "Wien",
    "GEMEINDE_ID": 90001,
    "WGS84_LAT": 48.1584927426059,
    "WGS84_LON": 16.4946316850288,
    "STAND": ""
  },
  {
    "HALTESTELLEN_ID": 214460122,
    "TYP": "stop",
    "DIVA": 60200017,
    "NAME": "Alberner Hafenzufahrtsstr.",
    "GEMEINDE": "Wien",
    "GEMEINDE_ID": 90001,
    "WGS84_LAT": 48.1720937164414,
    "WGS84_LON": 16.4724792301224,
    "STAND": ""
  },
  {
    "HALTESTELLEN_ID": 214460123,
    "TYP": "stop",
    "DIVA": 60200018,
    "NAME": "Alberner Straße",
    "GEMEINDE": "Wien",
    "GEMEINDE_ID": 90001,
    "WGS84_LAT": 48.1561796191031,
    "WGS84_LON": 16.4845615706938,
    "STAND": ""
  },
  {
    "HALTESTELLEN_ID": 214460124,
    "TYP": "stop",
    "DIVA": 60200019,
    "NAME": "Albertgasse",
    "GEMEINDE": "Wien",
    "GEMEINDE_ID": 90001,
    "WGS84_LAT": 48.2106062332956,
    "WGS84_LON": 16.344038110799,
    "STAND": ""
  },
  {
    "HALTESTELLEN_ID": 214460125,
    "TYP": "stop",
    "DIVA": 60200020,
    "NAME": "Albertinaplatz",
    "GEMEINDE": "Wien",
    "GEMEINDE_ID": 90001,
    "WGS84_LAT": 48.2046973913398,
    "WGS84_LON": 16.3686968653481,
    "STAND": ""
  },
  {
    "HALTESTELLEN_ID": 214460126,
    "TYP": "stop",
    "DIVA": 60200021,
    "NAME": "Carminweg",
    "GEMEINDE": "Wien",
    "GEMEINDE_ID": 90001,
    "WGS84_LAT": 48.2531812115548,
    "WGS84_LON": 16.4210596632594,
    "STAND": ""
  },
  {
    "HALTESTELLEN_ID": 214460127,
    "TYP": "stop",
    "DIVA": 60200022,
    "NAME": "Algenweg",
    "GEMEINDE": "Wien",
    "GEMEINDE_ID": 90001,
    "WGS84_LAT": 48.2487966979524,
    "WGS84_LON": 16.5314805779834,
    "STAND": ""
  },
  {
    "HALTESTELLEN_ID": 214460128,
    "TYP": "stop",
    "DIVA": 60200023,
    "NAME": "Allerheiligengasse",
    "GEMEINDE": "Wien",
    "GEMEINDE_ID": 90001,
    "WGS84_LAT": 48.2380820689074,
    "WGS84_LON": 16.3871662275896,
    "STAND": ""
  },
  {
    "HALTESTELLEN_ID": 214460129,
    "TYP": "stop",
    "DIVA": 60200024,
    "NAME": "Allissen",
    "GEMEINDE": "Wien",
    "GEMEINDE_ID": 90001,
    "WGS84_LAT": 48.2863489665822,
    "WGS84_LON": 16.4301685802404,
    "STAND": ""
  },
  {
    "HALTESTELLEN_ID": 214460130,
    "TYP": "stop",
    "DIVA": 60200025,
    "NAME": "Alois-Behr-Straße",
    "GEMEINDE": "Wien",
    "GEMEINDE_ID": 90001,
    "WGS84_LAT": 48.2056074093841,
    "WGS84_LON": 16.2410552466275,
    "STAND": ""
  },
  {
    "HALTESTELLEN_ID": 214460131,
    "TYP": "stop",
    "DIVA": 60200026,
    "NAME": "Alsegger Straße",
    "GEMEINDE": "Wien",
    "GEMEINDE_ID": 90001,
    "WGS84_LAT": 48.2316857237553,
    "WGS84_LON": 16.3243650060768,
    "STAND": ""
  },
  {
    "HALTESTELLEN_ID": 214460132,
    "TYP": "stop",
    "DIVA": 60200027,
    "NAME": "Alser Straße",
    "GEMEINDE": "Wien",
    "GEMEINDE_ID": 90001,
    "WGS84_LAT": 48.217142881097,
    "WGS84_LON": 16.341998935104,
    "STAND": ""
  },
  {
    "HALTESTELLEN_ID": 214460133,
    "TYP": "stop",
    "DIVA": 60200028,
    "NAME": "Aichholzgasse",
    "GEMEINDE": "Wien",
    "GEMEINDE_ID": 90001,
    "WGS84_LAT": 48.1803244479977,
    "WGS84_LON": 16.3243470397711,
    "STAND": ""
  },
  {
    "HALTESTELLEN_ID": 214460134,
    "TYP": "stop",
    "DIVA": 60200029,
    "NAME": "Nußdorfer Str./Alserbachstr.",
    "GEMEINDE": "Wien",
    "GEMEINDE_ID": 90001,
    "WGS84_LAT": 48.224648222042,
    "WGS84_LON": 16.3543148376493,
    "STAND": ""
  },
  {
    "HALTESTELLEN_ID": 214460135,
    "TYP": "stop",
    "DIVA": 60200030,
    "NAME": "Triester Str./Altdorferstraße",
    "GEMEINDE": "Wien",
    "GEMEINDE_ID": 90001,
    "WGS84_LAT": 48.1686968067122,
    "WGS84_LON": 16.3493741035867,
    "STAND": ""
  },
  {
    "HALTESTELLEN_ID": 214460136,
    "TYP": "stop",
    "DIVA": 60200031,
    "NAME": "Alte Donau",
    "GEMEINDE": "Wien",
    "GEMEINDE_ID": 90001,
    "WGS84_LAT": 48.2379564234283,
    "WGS84_LON": 16.4242307162123,
    "STAND": ""
  },
  {
    "HALTESTELLEN_ID": 214460137,
    "TYP": "stop",
    "DIVA": 60200032,
    "NAME": "Aichholzgasse/Ratschkygasse",
    "GEMEINDE": "Wien",
    "GEMEINDE_ID": 90001,
    "WGS84_LAT": 48.1775989881695,
    "WGS84_LON": 16.3236104212381,
    "STAND": ""
  },
  {
    "HALTESTELLEN_ID": 214460138,
    "TYP": "stop",
    "DIVA": 60200033,
    "NAME": "Altes Landgut",
    "GEMEINDE": "Wien",
    "GEMEINDE_ID": 90001,
    "WGS84_LAT": 48.1621060403008,
    "WGS84_LON": 16.3833843202434,
    "STAND": ""
  },
  {
    "HALTESTELLEN_ID": 214460139,
    "TYP": "stop",
    "DIVA": 60200034,
    "NAME": "Althanstraße",
    "GEMEINDE": "Wien",
    "GEMEINDE_ID": 90001,
    "WGS84_LAT": 48.2288373277351,
    "WGS84_LON": 16.3595520157557,
    "STAND": ""
  },
  {
    "HALTESTELLEN_ID": 214460140,
    "TYP": "stop",
    "DIVA": 60200035,
    "NAME": "Breitenfurter St/Altmannsd Str",
    "GEMEINDE": "Wien",
    "GEMEINDE_ID": 90001,
    "WGS84_LAT": 48.1655992519806,
    "WGS84_LON": 16.3166125451748,
    "STAND": ""
  },
  {
    "HALTESTELLEN_ID": 214460141,
    "TYP": "stop",
    "DIVA": 60200036,
    "NAME": "Pfeiffenbergergasse",
    "GEMEINDE": "Wien",
    "GEMEINDE_ID": 90001,
    "WGS84_LAT": 48.1946621729789,
    "WGS84_LON": 16.2610068290878,
    "STAND": ""
  },
  {
    "HALTESTELLEN_ID": 214460142,
    "TYP": "stop",
    "DIVA": 60200037,
    "NAME": "Am Fasangarten",
    "GEMEINDE": "Wien",
    "GEMEINDE_ID": 90001,
    "WGS84_LAT": 48.1712549942186,
    "WGS84_LON": 16.3045930866733,
    "STAND": ""
  },
  {
    "HALTESTELLEN_ID": 214460143,
    "TYP": "stop",
    "DIVA": 60200038,
    "NAME": "Zanggasse",
    "GEMEINDE": "Wien",
    "GEMEINDE_ID": 90001,
    "WGS84_LAT": 48.2388000371538,
    "WGS84_LON": 16.4844447897069,
    "STAND": ""
  },
  {
    "HALTESTELLEN_ID": 214460144,
    "TYP": "stop",
    "DIVA": 60200039,
    "NAME": "Am Heidjöchl",
    "GEMEINDE": "Wien",
    "GEMEINDE_ID": 90001,
    "WGS84_LAT": 48.2368076504547,
    "WGS84_LON": 16.4887207704593,
    "STAND": ""
  },
  {
    "HALTESTELLEN_ID": 214460145,
    "TYP": "stop",
    "DIVA": 60200040,
    "NAME": "Am Himmelreich",
    "GEMEINDE": "Wien",
    "GEMEINDE_ID": 90001,
    "WGS84_LAT": 48.1639095978204,
    "WGS84_LON": 16.4381725694219,
    "STAND": ""
  },
  {
    "HALTESTELLEN_ID": 214460146,
    "TYP": "stop",
    "DIVA": 60200041,
    "NAME": "Am Hundsturm",
    "GEMEINDE": "Wien",
    "GEMEINDE_ID": 90001,
    "WGS84_LAT": 48.1867631456575,
    "WGS84_LON": 16.3474247594201,
    "STAND": ""
  },
  {
    "HALTESTELLEN_ID": 214460147,
    "TYP": "stop",
    "DIVA": 60200042,
    "NAME": "Am Kanal",
    "GEMEINDE": "Wien",
    "GEMEINDE_ID": 90001,
    "WGS84_LAT": 48.1700208494332,
    "WGS84_LON": 16.4101002167931,
    "STAND": ""
  },
  {
    "HALTESTELLEN_ID": 214460148,
    "TYP": "stop",
    "DIVA": 60200043,
    "NAME": "Am Kanal/Hasenleitengasse",
    "GEMEINDE": "Wien",
    "GEMEINDE_ID": 90001,
    "WGS84_LAT": 48.1636759178639,
    "WGS84_LON": 16.4184275994769,
    "STAND": ""
  },
  {
    "HALTESTELLEN_ID": 214460149,
    "TYP": "stop",
    "DIVA": 60200044,
    "NAME": "Am Modenapark",
    "GEMEINDE": "Wien",
    "GEMEINDE_ID": 90001,
    "WGS84_LAT": 48.1990992273478,
    "WGS84_LON": 16.3826207522519,
    "STAND": ""
  },
  {
    "HALTESTELLEN_ID": 214460150,
    "TYP": "stop",
    "DIVA": 60200045,
    "NAME": "Am Platz",
    "GEMEINDE": "Wien",
    "GEMEINDE_ID": 90001,
    "WGS84_LAT": 48.1860564258032,
    "WGS84_LON": 16.3014849157902,
    "STAND": ""
  },
  {
    "HALTESTELLEN_ID": 214460151,
    "TYP": "stop",
    "DIVA": 60200046,
    "NAME": "Am Rosenhügel",
    "GEMEINDE": "Wien",
    "GEMEINDE_ID": 90001,
    "WGS84_LAT": 48.1618783441456,
    "WGS84_LON": 16.2908937785905,
    "STAND": ""
  },
  {
    "HALTESTELLEN_ID": 214460152,
    "TYP": "stop",
    "DIVA": 60200047,
    "NAME": "Reichsbrücke",
    "GEMEINDE": "Wien",
    "GEMEINDE_ID": 90001,
    "WGS84_LAT": 48.2283346531558,
    "WGS84_LON": 16.4097408906795,
    "STAND": ""
  },
  {
    "HALTESTELLEN_ID": 214460153,
    "TYP": "stop",
    "DIVA": 60200048,
    "NAME": "Am Schöpfwerk",
    "GEMEINDE": "Wien",
    "GEMEINDE_ID": 90001,
    "WGS84_LAT": 48.1612312021862,
    "WGS84_LON": 16.3246075512035,
    "STAND": ""
  },
  {
    "HALTESTELLEN_ID": 214460154,
    "TYP": "stop",
    "DIVA": 60200049,
    "NAME": "Am Spiegeln",
    "GEMEINDE": "Wien",
    "GEMEINDE_ID": 90001,
    "WGS84_LAT": 48.1522782341351,
    "WGS84_LON": 16.2821980866402,
    "STAND": ""
  },
  {
    "HALTESTELLEN_ID": 214460155,
    "TYP": "stop",
    "DIVA": 60200050,
    "NAME": "Am Spitz",
    "GEMEINDE": "Wien",
    "GEMEINDE_ID": 90001,
    "WGS84_LAT": 48.258205294225,
    "WGS84_LON": 16.39738007237,
    "STAND": ""
  },
  {
    "HALTESTELLEN_ID": 214460156,
    "TYP": "stop",
    "DIVA": 60200051,
    "NAME": "Am Tabor",
    "GEMEINDE": "Wien",
    "GEMEINDE_ID": 90001,
    "WGS84_LAT": 48.2251030558241,
    "WGS84_LON": 16.3834741517718,
    "STAND": ""
  },
  {
    "HALTESTELLEN_ID": 214460157,
    "TYP": "stop",
    "DIVA": 60200052,
    "NAME": "Fünfhausgasse",
    "GEMEINDE": "Wien",
    "GEMEINDE_ID": 90001,
    "WGS84_LAT": 48.189086867664,
    "WGS84_LON": 16.33544123353,
    "STAND": ""
  },
  {
    "HALTESTELLEN_ID": 214460158,
    "TYP": "stop",
    "DIVA": 60200053,
    "NAME": "Gesundheitszentrum Süd",
    "GEMEINDE": "Wien",
    "GEMEINDE_ID": 90001,
    "WGS84_LAT": 48.1699070190491,
    "WGS84_LON": 16.3451340554456,
    "STAND": ""
  },
  {
    "HALTESTELLEN_ID": 214460159,
    "TYP": "stop",
    "DIVA": 60200054,
    "NAME": "Ameisbachzeile",
    "GEMEINDE": "Wien",
    "GEMEINDE_ID": 90001,
    "WGS84_LAT": 48.2011349941318,
    "WGS84_LON": 16.2922592178223,
    "STAND": ""
  },
  {
    "HALTESTELLEN_ID": 214460160,
    "TYP": "stop",
    "DIVA": 60200055,
    "NAME": "Ameisgasse",
    "GEMEINDE": "Wien",
    "GEMEINDE_ID": 90001,
    "WGS84_LAT": 48.1938537613685,
    "WGS84_LON": 16.299517605318,
    "STAND": ""
  },
  {
    "HALTESTELLEN_ID": 214460161,
    "TYP": "stop",
    "DIVA": 60200056,
    "NAME": "Neubaugasse",
    "GEMEINDE": "Wien",
    "GEMEINDE_ID": 90001,
    "WGS84_LAT": 48.1982908857453,
    "WGS84_LON": 16.350200553648,
    "STAND": ""
  },
  {
    "HALTESTELLEN_ID": 214460162,
    "TYP": "stop",
    "DIVA": 60200057,
    "NAME": "Ammerweg",
    "GEMEINDE": "Wien",
    "GEMEINDE_ID": 90001,
    "WGS84_LAT": 48.2185135557888,
    "WGS84_LON": 16.260431907306,
    "STAND": ""
  },
  {
    "HALTESTELLEN_ID": 214460163,
    "TYP": "stop",
    "DIVA": 60200058,
    "NAME": "Amongasse",
    "GEMEINDE": "Wien",
    "GEMEINDE_ID": 90001,
    "WGS84_LAT": 48.2301837531759,
    "WGS84_LON": 16.4694519076149,
    "STAND": ""
  },
  {
    "HALTESTELLEN_ID": 214460164,
    "TYP": "stop",
    "DIVA": 60200059,
    "NAME": "An den Steinfeldern",
    "GEMEINDE": "Wien",
    "GEMEINDE_ID": 90001,
    "WGS84_LAT": 48.137311184666,
    "WGS84_LON": 16.2981162334748,
    "STAND": ""
  },
  {
    "HALTESTELLEN_ID": 214460165,
    "TYP": "stop",
    "DIVA": 60200060,
    "NAME": "An den alten Schanzen",
    "GEMEINDE": "Wien",
    "GEMEINDE_ID": 90001,
    "WGS84_LAT": 48.2263837502866,
    "WGS84_LON": 16.4898436645644,
    "STAND": ""
  },
  {
    "HALTESTELLEN_ID": 214460166,
    "TYP": "stop",
    "DIVA": 60200061,
    "NAME": "An den langen Lüssen",
    "GEMEINDE": "Wien",
    "GEMEINDE_ID": 90001,
    "WGS84_LAT": 48.2526548505155,
    "WGS84_LON": 16.3419091035756,
    "STAND": ""
  },
  {
    "HALTESTELLEN_ID": 214460167,
    "TYP": "stop",
    "DIVA": 60200062,
    "NAME": "An der Bien",
    "GEMEINDE": "Wien",
    "GEMEINDE_ID": 90001,
    "WGS84_LAT": 48.2071340480777,
    "WGS84_LON": 16.4794950724914,
    "STAND": ""
  },
  {
    "HALTESTELLEN_ID": 214460168,
    "TYP": "stop",
    "DIVA": 60200063,
    "NAME": "An der Niederhaid",
    "GEMEINDE": "Wien",
    "GEMEINDE_ID": 90001,
    "WGS84_LAT": 48.2041346089318,
    "WGS84_LON": 16.2697384536495,
    "STAND": ""
  },
  {
    "HALTESTELLEN_ID": 214460169,
    "TYP": "stop",
    "DIVA": 60200064,
    "NAME": "Upsalagasse",
    "GEMEINDE": "Wien",
    "GEMEINDE_ID": 90001,
    "WGS84_LAT": 48.1500966852806,
    "WGS84_LON": 16.3800515705393,
    "STAND": ""
  },
  {
    "HALTESTELLEN_ID": 214460170,
    "TYP": "stop",
    "DIVA": 60200065,
    "NAME": "Liebhartstal",
    "GEMEINDE": "Wien",
    "GEMEINDE_ID": 90001,
    "WGS84_LAT": 48.2157482268251,
    "WGS84_LON": 16.2919088748615,
    "STAND": ""
  },
  {
    "HALTESTELLEN_ID": 214460171,
    "TYP": "stop",
    "DIVA": 60200066,
    "NAME": "Angermayergasse",
    "GEMEINDE": "Wien",
    "GEMEINDE_ID": 90001,
    "WGS84_LAT": 48.1843914032162,
    "WGS84_LON": 16.2649234837266,
    "STAND": ""
  },
  {
    "HALTESTELLEN_ID": 214460172,
    "TYP": "stop",
    "DIVA": 60200067,
    "NAME": "Anschützgasse",
    "GEMEINDE": "Wien",
    "GEMEINDE_ID": 90001,
    "WGS84_LAT": 48.1903744517599,
    "WGS84_LON": 16.323053465762,
    "STAND": ""
  },
  {
    "HALTESTELLEN_ID": 214460173,
    "TYP": "stop",
    "DIVA": 60200068,
    "NAME": "Anton-Bosch-Gasse",
    "GEMEINDE": "Wien",
    "GEMEINDE_ID": 90001,
    "WGS84_LAT": 48.2694419013947,
    "WGS84_LON": 16.3875165705504,
    "STAND": ""
  },
  {
    "HALTESTELLEN_ID": 214460174,
    "TYP": "stop",
    "DIVA": 60200069,
    "NAME": "Anton-Böck-Gasse",
    "GEMEINDE": "Wien",
    "GEMEINDE_ID": 90001,
    "WGS84_LAT": 48.2964020710988,
    "WGS84_LON": 16.3897803250664,
    "STAND": ""
  },
  {
    "HALTESTELLEN_ID": 214460175,
    "TYP": "stop",
    "DIVA": 60200070,
    "NAME": "Anton-Krieger-Gasse",
    "GEMEINDE": "Wien",
    "GEMEINDE_ID": 90001,
    "WGS84_LAT": 48.1428201897953,
    "WGS84_LON": 16.270385240654,
    "STAND": ""
  },
  {
    "HALTESTELLEN_ID": 214460176,
    "TYP": "stop",
    "DIVA": 60200071,
    "NAME": "Doningasse",
    "GEMEINDE": "Wien",
    "GEMEINDE_ID": 90001,
    "WGS84_LAT": 48.2516200567669,
    "WGS84_LON": 16.4410561614839,
    "STAND": ""
  },
  {
    "HALTESTELLEN_ID": 214460177,
    "TYP": "stop",
    "DIVA": 60200072,
    "NAME": "Anton-Störck-Gasse",
    "GEMEINDE": "Wien",
    "GEMEINDE_ID": 90001,
    "WGS84_LAT": 48.2648674233156,
    "WGS84_LON": 16.3860882492486,
    "STAND": ""
  },
  {
    "HALTESTELLEN_ID": 214460178,
    "TYP": "stop",
    "DIVA": 60200073,
    "NAME": "Antonigasse",
    "GEMEINDE": "Wien",
    "GEMEINDE_ID": 90001,
    "WGS84_LAT": 48.2259528660072,
    "WGS84_LON": 16.32978184724,
    "STAND": ""
  },
  {
    "HALTESTELLEN_ID": 214460179,
    "TYP": "stop",
    "DIVA": 60200074,
    "NAME": "Anzengruberstraße",
    "GEMEINDE": "Wien",
    "GEMEINDE_ID": 90001,
    "WGS84_LAT": 48.2139584646136,
    "WGS84_LON": 16.2239513236179,
    "STAND": ""
  },
  {
    "HALTESTELLEN_ID": 214460180,
    "TYP": "stop",
    "DIVA": 60200075,
    "NAME": "Apostelgasse",
    "GEMEINDE": "Wien",
    "GEMEINDE_ID": 90001,
    "WGS84_LAT": 48.2004883475678,
    "WGS84_LON": 16.3981346572087,
    "STAND": ""
  },
  {
    "HALTESTELLEN_ID": 214460181,
    "TYP": "stop",
    "DIVA": 60200076,
    "NAME": "Liesing Aquädukt",
    "GEMEINDE": "Wien",
    "GEMEINDE_ID": 90001,
    "WGS84_LAT": 48.1337201220539,
    "WGS84_LON": 16.2720201744711,
    "STAND": ""
  },
  {
    "HALTESTELLEN_ID": 214460182,
    "TYP": "stop",
    "DIVA": 60200077,
    "NAME": "Arbeitergasse/Gürtel",
    "GEMEINDE": "Wien",
    "GEMEINDE_ID": 90001,
    "WGS84_LAT": 48.1840559964376,
    "WGS84_LON": 16.345960505507,
    "STAND": ""
  },
  {
    "HALTESTELLEN_ID": 214460183,
    "TYP": "stop",
    "DIVA": 60200078,
    "NAME": "Arbeiterinnenstrandbad",
    "GEMEINDE": "Wien",
    "GEMEINDE_ID": 90001,
    "WGS84_LAT": 48.2432571978933,
    "WGS84_LON": 16.4140168714319,
    "STAND": ""
  },
  {
    "HALTESTELLEN_ID": 214460184,
    "TYP": "stop",
    "DIVA": 60200079,
    "NAME": "Argentinierstraße",
    "GEMEINDE": "Wien",
    "GEMEINDE_ID": 90001,
    "WGS84_LAT": 48.1885478693672,
    "WGS84_LON": 16.3767367871409,
    "STAND": ""
  },
  {
    "HALTESTELLEN_ID": 214460185,
    "TYP": "stop",
    "DIVA": 60200080,
    "NAME": "Armbrustergasse",
    "GEMEINDE": "Wien",
    "GEMEINDE_ID": 90001,
    "WGS84_LAT": 48.2538570990344,
    "WGS84_LON": 16.3548897594311,
    "STAND": ""
  },
  {
    "HALTESTELLEN_ID": 214460186,
    "TYP": "stop",
    "DIVA": 60200081,
    "NAME": "Arminenstraße",
    "GEMEINDE": "Wien",
    "GEMEINDE_ID": 90001,
    "WGS84_LAT": 48.2362811208879,
    "WGS84_LON": 16.4375886644872,
    "STAND": ""
  },
  {
    "HALTESTELLEN_ID": 214460187,
    "TYP": "stop",
    "DIVA": 60200082,
    "NAME": "Arndtstraße",
    "GEMEINDE": "Wien",
    "GEMEINDE_ID": 90001,
    "WGS84_LAT": 48.1836487138274,
    "WGS84_LON": 16.3369504032073,
    "STAND": ""
  },
  {
    "HALTESTELLEN_ID": 214460188,
    "TYP": "stop",
    "DIVA": 60200083,
    "NAME": "Breitenleer Str./Arnikaweg",
    "GEMEINDE": "Wien",
    "GEMEINDE_ID": 90001,
    "WGS84_LAT": 48.2514764999107,
    "WGS84_LON": 16.4801059268846,
    "STAND": ""
  },
  {
    "HALTESTELLEN_ID": 214460189,
    "TYP": "stop",
    "DIVA": 60200084,
    "NAME": "Arsenal",
    "GEMEINDE": "Wien",
    "GEMEINDE_ID": 90001,
    "WGS84_LAT": 48.1838044399134,
    "WGS84_LON": 16.3846239953355,
    "STAND": ""
  },
  {
    "HALTESTELLEN_ID": 214460190,
    "TYP": "stop",
    "DIVA": 60200085,
    "NAME": "Artariastraße",
    "GEMEINDE": "Wien",
    "GEMEINDE_ID": 90001,
    "WGS84_LAT": 48.242443570681,
    "WGS84_LON": 16.2813446871203,
    "STAND": ""
  },
  {
    "HALTESTELLEN_ID": 214460191,
    "TYP": "stop",
    "DIVA": 60200086,
    "NAME": "Arthaberplatz",
    "GEMEINDE": "Wien",
    "GEMEINDE_ID": 90001,
    "WGS84_LAT": 48.1724951000803,
    "WGS84_LON": 16.3721643623448,
    "STAND": ""
  },
  {
    "HALTESTELLEN_ID": 214460192,
    "TYP": "stop",
    "DIVA": 60200087,
    "NAME": "Artillerieplatz",
    "GEMEINDE": "Wien",
    "GEMEINDE_ID": 90001,
    "WGS84_LAT": 48.1639455484884,
    "WGS84_LON": 16.4727217752491,
    "STAND": ""
  },
  {
    "HALTESTELLEN_ID": 214460193,
    "TYP": "stop",
    "DIVA": 60200088,
    "NAME": "Aspernallee",
    "GEMEINDE": "Wien",
    "GEMEINDE_ID": 90001,
    "WGS84_LAT": 48.1970454159416,
    "WGS84_LON": 16.4451434960266,
    "STAND": ""
  },
  {
    "HALTESTELLEN_ID": 214460194,
    "TYP": "stop",
    "DIVA": 60200089,
    "NAME": "Asperner Heldenplatz",
    "GEMEINDE": "Wien",
    "GEMEINDE_ID": 90001,
    "WGS84_LAT": 48.2170830254708,
    "WGS84_LON": 16.4832769798375,
    "STAND": ""
  },
  {
    "HALTESTELLEN_ID": 214460195,
    "TYP": "stop",
    "DIVA": 60200090,
    "NAME": "Frederick-Loewe-Weg",
    "GEMEINDE": "Wien",
    "GEMEINDE_ID": 90001,
    "WGS84_LAT": 48.2380461702306,
    "WGS84_LON": 16.4816330628676,
    "STAND": ""
  },
  {
    "HALTESTELLEN_ID": 214460197,
    "TYP": "stop",
    "DIVA": 60200092,
    "NAME": "Atzgersdorf Friedhof",
    "GEMEINDE": "Wien",
    "GEMEINDE_ID": 90001,
    "WGS84_LAT": 48.14302998788,
    "WGS84_LON": 16.2979455535708,
    "STAND": ""
  },
  {
    "HALTESTELLEN_ID": 214460198,
    "TYP": "stop",
    "DIVA": 60200093,
    "NAME": "Atzgersdorf Kirchenplatz",
    "GEMEINDE": "Wien",
    "GEMEINDE_ID": 90001,
    "WGS84_LAT": 48.1476153603959,
    "WGS84_LON": 16.2942714440588,
    "STAND": ""
  },
  {
    "HALTESTELLEN_ID": 214460199,
    "TYP": "stop",
    "DIVA": 60200094,
    "NAME": "Atzgersdorf",
    "GEMEINDE": "Wien",
    "GEMEINDE_ID": 90001,
    "WGS84_LAT": 48.1472617318652,
    "WGS84_LON": 16.2887468050614,
    "STAND": ""
  },
  {
    "HALTESTELLEN_ID": 214460200,
    "TYP": "stop",
    "DIVA": 60200095,
    "NAME": "An der Liesing",
    "GEMEINDE": "Wien",
    "GEMEINDE_ID": 90001,
    "WGS84_LAT": 48.138947762604,
    "WGS84_LON": 16.2640970336652,
    "STAND": ""
  },
  {
    "HALTESTELLEN_ID": 214460201,
    "TYP": "stop",
    "DIVA": 60200096,
    "NAME": "Atzgersdorfer Straße",
    "GEMEINDE": "Wien",
    "GEMEINDE_ID": 90001,
    "WGS84_LAT": 48.170512114508,
    "WGS84_LON": 16.2963645186708,
    "STAND": ""
  },
  {
    "HALTESTELLEN_ID": 214460203,
    "TYP": "stop",
    "DIVA": 60200098,
    "NAME": "Auernheimergasse",
    "GEMEINDE": "Wien",
    "GEMEINDE_ID": 90001,
    "WGS84_LAT": 48.2031467312409,
    "WGS84_LON": 16.5181136465557,
    "STAND": ""
  },
  {
    "HALTESTELLEN_ID": 214460204,
    "TYP": "stop",
    "DIVA": 60200099,
    "NAME": "Augasse",
    "GEMEINDE": "Wien",
    "GEMEINDE_ID": 90001,
    "WGS84_LAT": 48.2297110122788,
    "WGS84_LON": 16.357440974838,
    "STAND": ""
  },
  {
    "HALTESTELLEN_ID": 214460205,
    "TYP": "stop",
    "DIVA": 60200100,
    "NAME": "Broßmannplatz",
    "GEMEINDE": "Wien",
    "GEMEINDE_ID": 90001,
    "WGS84_LAT": 48.2518473542982,
    "WGS84_LON": 16.3986107643092,
    "STAND": ""
  },
  {
    "HALTESTELLEN_ID": 214460206,
    "TYP": "stop",
    "DIVA": 60200101,
    "NAME": "Aumannplatz",
    "GEMEINDE": "Wien",
    "GEMEINDE_ID": 90001,
    "WGS84_LAT": 48.228161109595,
    "WGS84_LON": 16.3365641276351,
    "STAND": ""
  },
  {
    "HALTESTELLEN_ID": 214460207,
    "TYP": "stop",
    "DIVA": 60200102,
    "NAME": "Autokaderstraße",
    "GEMEINDE": "Wien",
    "GEMEINDE_ID": 90001,
    "WGS84_LAT": 48.2774477474419,
    "WGS84_LON": 16.3880106439566,
    "STAND": ""
  },
  {
    "HALTESTELLEN_ID": 214460208,
    "TYP": "stop",
    "DIVA": 60200103,
    "NAME": "Aßmayergasse",
    "GEMEINDE": "Wien",
    "GEMEINDE_ID": 90001,
    "WGS84_LAT": 48.178725129796,
    "WGS84_LON": 16.3377139711988,
    "STAND": ""
  },
  {
    "HALTESTELLEN_ID": 214460209,
    "TYP": "stop",
    "DIVA": 60200104,
    "NAME": "Bacherplatz",
    "GEMEINDE": "Wien",
    "GEMEINDE_ID": 90001,
    "WGS84_LAT": 48.1882424344826,
    "WGS84_LON": 16.3568570699034,
    "STAND": ""
  },
  {
    "HALTESTELLEN_ID": 214460210,
    "TYP": "stop",
    "DIVA": 60200105,
    "NAME": "Badeteich Süßenbrunn",
    "GEMEINDE": "Wien",
    "GEMEINDE_ID": 90001,
    "WGS84_LAT": 48.2773341557111,
    "WGS84_LON": 16.4864480327905,
    "STAND": ""
  },
  {
    "HALTESTELLEN_ID": 214460211,
    "TYP": "stop",
    "DIVA": 60200106,
    "NAME": "Badgasse",
    "GEMEINDE": "Wien",
    "GEMEINDE_ID": 90001,
    "WGS84_LAT": 48.2090138465414,
    "WGS84_LON": 16.2239962393821,
    "STAND": ""
  },
  {
    "HALTESTELLEN_ID": 214460212,
    "TYP": "stop",
    "DIVA": 60200107,
    "NAME": "Rettichgasse",
    "GEMEINDE": "Wien",
    "GEMEINDE_ID": 90001,
    "WGS84_LAT": 48.2015481251631,
    "WGS84_LON": 16.2623812514725,
    "STAND": ""
  },
  {
    "HALTESTELLEN_ID": 214460213,
    "TYP": "stop",
    "DIVA": 60200108,
    "NAME": "Duchekgasse",
    "GEMEINDE": "Wien",
    "GEMEINDE_ID": 90001,
    "WGS84_LAT": 48.2085528832398,
    "WGS84_LON": 16.5174578763983,
    "STAND": ""
  },
  {
    "HALTESTELLEN_ID": 214460214,
    "TYP": "stop",
    "DIVA": 60200109,
    "NAME": "Barawitzkagasse",
    "GEMEINDE": "Wien",
    "GEMEINDE_ID": 90001,
    "WGS84_LAT": 48.2446211909494,
    "WGS84_LON": 16.3556802768812,
    "STAND": ""
  },
  {
    "HALTESTELLEN_ID": 214460215,
    "TYP": "stop",
    "DIVA": 60200110,
    "NAME": "Barichgasse",
    "GEMEINDE": "Wien",
    "GEMEINDE_ID": 90001,
    "WGS84_LAT": 48.1980453868818,
    "WGS84_LON": 16.3950264863256,
    "STAND": ""
  },
  {
    "HALTESTELLEN_ID": 214460216,
    "TYP": "stop",
    "DIVA": 60200111,
    "NAME": "Morelligasse",
    "GEMEINDE": "Wien",
    "GEMEINDE_ID": 90001,
    "WGS84_LAT": 48.2504297189845,
    "WGS84_LON": 16.4041354033066,
    "STAND": ""
  },
  {
    "HALTESTELLEN_ID": 214460217,
    "TYP": "stop",
    "DIVA": 60200112,
    "NAME": "Bauernfeldplatz",
    "GEMEINDE": "Wien",
    "GEMEINDE_ID": 90001,
    "WGS84_LAT": 48.2208777337549,
    "WGS84_LON": 16.3607198256251,
    "STAND": ""
  },
  {
    "HALTESTELLEN_ID": 214460218,
    "TYP": "stop",
    "DIVA": 60200113,
    "NAME": "Linzer Straße/Hochsatzengasse",
    "GEMEINDE": "Wien",
    "GEMEINDE_ID": 90001,
    "WGS84_LAT": 48.1968538025152,
    "WGS84_LON": 16.2771046389792,
    "STAND": ""
  },
  {
    "HALTESTELLEN_ID": 214460219,
    "TYP": "stop",
    "DIVA": 60200114,
    "NAME": "Baumgartner Friedhof",
    "GEMEINDE": "Wien",
    "GEMEINDE_ID": 90001,
    "WGS84_LAT": 48.2015541125449,
    "WGS84_LON": 16.2790000842287,
    "STAND": ""
  },
  {
    "HALTESTELLEN_ID": 214460220,
    "TYP": "stop",
    "DIVA": 60200115,
    "NAME": "Baumgasse",
    "GEMEINDE": "Wien",
    "GEMEINDE_ID": 90001,
    "WGS84_LAT": 48.1932908598258,
    "WGS84_LON": 16.4047552408526,
    "STAND": ""
  },
  {
    "HALTESTELLEN_ID": 214460221,
    "TYP": "stop",
    "DIVA": 60200116,
    "NAME": "Nußdorf, Beethovengang",
    "GEMEINDE": "Wien",
    "GEMEINDE_ID": 90001,
    "WGS84_LAT": 48.2595449662256,
    "WGS84_LON": 16.3630554453638,
    "STAND": ""
  },
  {
    "HALTESTELLEN_ID": 214460222,
    "TYP": "stop",
    "DIVA": 60200117,
    "NAME": "Belgradplatz",
    "GEMEINDE": "Wien",
    "GEMEINDE_ID": 90001,
    "WGS84_LAT": 48.1742803205892,
    "WGS84_LON": 16.3607377919308,
    "STAND": ""
  },
  {
    "HALTESTELLEN_ID": 214460223,
    "TYP": "stop",
    "DIVA": 60200118,
    "NAME": "Bellevuestraße",
    "GEMEINDE": "Wien",
    "GEMEINDE_ID": 90001,
    "WGS84_LAT": 48.24867107879,
    "WGS84_LON": 16.3285242058422,
    "STAND": ""
  },
  {
    "HALTESTELLEN_ID": 214460224,
    "TYP": "stop",
    "DIVA": 60200119,
    "NAME": "Jedlesee, Bellgasse",
    "GEMEINDE": "Wien",
    "GEMEINDE_ID": 90001,
    "WGS84_LAT": 48.26224812605,
    "WGS84_LON": 16.3871662275896,
    "STAND": ""
  },
  {
    "HALTESTELLEN_ID": 214460225,
    "TYP": "stop",
    "DIVA": 60200120,
    "NAME": "Belvederegasse",
    "GEMEINDE": "Wien",
    "GEMEINDE_ID": 90001,
    "WGS84_LAT": 48.1901468811105,
    "WGS84_LON": 16.3719577498294,
    "STAND": ""
  },
  {
    "HALTESTELLEN_ID": 214460226,
    "TYP": "stop",
    "DIVA": 60200121,
    "NAME": "Benatzkygasse",
    "GEMEINDE": "Wien",
    "GEMEINDE_ID": 90001,
    "WGS84_LAT": 48.2301897372099,
    "WGS84_LON": 16.4395739412651,
    "STAND": ""
  },
  {
    "HALTESTELLEN_ID": 214460227,
    "TYP": "stop",
    "DIVA": 60200122,
    "NAME": "Berggasse",
    "GEMEINDE": "Wien",
    "GEMEINDE_ID": 90001,
    "WGS84_LAT": 48.2180646489047,
    "WGS84_LON": 16.3617349218961,
    "STAND": ""
  },
  {
    "HALTESTELLEN_ID": 214460228,
    "TYP": "stop",
    "DIVA": 60200123,
    "NAME": "Bergmillergasse",
    "GEMEINDE": "Wien",
    "GEMEINDE_ID": 90001,
    "WGS84_LAT": 48.2013744907877,
    "WGS84_LON": 16.2567757640996,
    "STAND": ""
  },
  {
    "HALTESTELLEN_ID": 214460229,
    "TYP": "stop",
    "DIVA": 60200124,
    "NAME": "Yppengasse",
    "GEMEINDE": "Wien",
    "GEMEINDE_ID": 90001,
    "WGS84_LAT": 48.2147126864166,
    "WGS84_LON": 16.335665812351,
    "STAND": ""
  },
  {
    "HALTESTELLEN_ID": 214460230,
    "TYP": "stop",
    "DIVA": 60200125,
    "NAME": "Theodor-Körner-Gasse",
    "GEMEINDE": "Wien",
    "GEMEINDE_ID": 90001,
    "WGS84_LAT": 48.2497178957151,
    "WGS84_LON": 16.4076567992203,
    "STAND": ""
  },
  {
    "HALTESTELLEN_ID": 214460231,
    "TYP": "stop",
    "DIVA": 60200126,
    "NAME": "Berlepschgasse",
    "GEMEINDE": "Wien",
    "GEMEINDE_ID": 90001,
    "WGS84_LAT": 48.1428741379562,
    "WGS84_LON": 16.382674651169,
    "STAND": ""
  },
  {
    "HALTESTELLEN_ID": 214460232,
    "TYP": "stop",
    "DIVA": 60200127,
    "NAME": "Fernkorngasse",
    "GEMEINDE": "Wien",
    "GEMEINDE_ID": 90001,
    "WGS84_LAT": 48.1740766408535,
    "WGS84_LON": 16.3633339231019,
    "STAND": ""
  },
  {
    "HALTESTELLEN_ID": 214460233,
    "TYP": "stop",
    "DIVA": 60200128,
    "NAME": "Bernreiterplatz",
    "GEMEINDE": "Wien",
    "GEMEINDE_ID": 90001,
    "WGS84_LAT": 48.2814053647847,
    "WGS84_LON": 16.4063452589055,
    "STAND": ""
  },
  {
    "HALTESTELLEN_ID": 214460234,
    "TYP": "stop",
    "DIVA": 60200129,
    "NAME": "Mühlschüttel",
    "GEMEINDE": "Wien",
    "GEMEINDE_ID": 90001,
    "WGS84_LAT": 48.249251317104,
    "WGS84_LON": 16.4107919195619,
    "STAND": ""
  },
  {
    "HALTESTELLEN_ID": 214460235,
    "TYP": "stop",
    "DIVA": 60200130,
    "NAME": "Berzeliusgasse",
    "GEMEINDE": "Wien",
    "GEMEINDE_ID": 90001,
    "WGS84_LAT": 48.2756541643088,
    "WGS84_LON": 16.4104954755181,
    "STAND": ""
  },
  {
    "HALTESTELLEN_ID": 214460236,
    "TYP": "stop",
    "DIVA": 60200131,
    "NAME": "Beschußamt",
    "GEMEINDE": "Wien",
    "GEMEINDE_ID": 90001,
    "WGS84_LAT": 48.1773833412063,
    "WGS84_LON": 16.4339954033507,
    "STAND": ""
  },
  {
    "HALTESTELLEN_ID": 214460237,
    "TYP": "stop",
    "DIVA": 60200132,
    "NAME": "Anton-Schall-Gasse",
    "GEMEINDE": "Wien",
    "GEMEINDE_ID": 90001,
    "WGS84_LAT": 48.2893196796889,
    "WGS84_LON": 16.4158494346115,
    "STAND": ""
  },
  {
    "HALTESTELLEN_ID": 214460238,
    "TYP": "stop",
    "DIVA": 60200133,
    "NAME": "Bettelheimstraße",
    "GEMEINDE": "Wien",
    "GEMEINDE_ID": 90001,
    "WGS84_LAT": 48.2789961569016,
    "WGS84_LON": 16.4924936946526,
    "STAND": ""
  },
  {
    "HALTESTELLEN_ID": 214460239,
    "TYP": "stop",
    "DIVA": 60200134,
    "NAME": "Bezirksamt Donaustadt",
    "GEMEINDE": "Wien",
    "GEMEINDE_ID": 90001,
    "WGS84_LAT": 48.240355600455,
    "WGS84_LON": 16.4364388209235,
    "STAND": ""
  },
  {
    "HALTESTELLEN_ID": 214460240,
    "TYP": "stop",
    "DIVA": 60200135,
    "NAME": "Döblinger Hptstr./Gatterburgg.",
    "GEMEINDE": "Wien",
    "GEMEINDE_ID": 90001,
    "WGS84_LAT": 48.2389137145355,
    "WGS84_LON": 16.3546022985402,
    "STAND": ""
  },
  {
    "HALTESTELLEN_ID": 214460241,
    "TYP": "stop",
    "DIVA": 60200136,
    "NAME": "Laxenburger Str./Gudrunstr.",
    "GEMEINDE": "Wien",
    "GEMEINDE_ID": 90001,
    "WGS84_LAT": 48.1783597354899,
    "WGS84_LON": 16.3737543803977,
    "STAND": ""
  },
  {
    "HALTESTELLEN_ID": 214460242,
    "TYP": "stop",
    "DIVA": 60200137,
    "NAME": "Bezirksamt Margareten",
    "GEMEINDE": "Wien",
    "GEMEINDE_ID": 90001,
    "WGS84_LAT": 48.1906738852852,
    "WGS84_LON": 16.3549975572652,
    "STAND": ""
  },
  {
    "HALTESTELLEN_ID": 214460243,
    "TYP": "stop",
    "DIVA": 60200138,
    "NAME": "Bibernellweg",
    "GEMEINDE": "Wien",
    "GEMEINDE_ID": 90001,
    "WGS84_LAT": 48.2472533554225,
    "WGS84_LON": 16.4790998137664,
    "STAND": ""
  },
  {
    "HALTESTELLEN_ID": 214460244,
    "TYP": "stop",
    "DIVA": 60200139,
    "NAME": "Kretschekgasse",
    "GEMEINDE": "Wien",
    "GEMEINDE_ID": 90001,
    "WGS84_LAT": 48.224630267994,
    "WGS84_LON": 16.283509626955,
    "STAND": ""
  },
  {
    "HALTESTELLEN_ID": 214460245,
    "TYP": "stop",
    "DIVA": 60200140,
    "NAME": "Binsenweg",
    "GEMEINDE": "Wien",
    "GEMEINDE_ID": 90001,
    "WGS84_LAT": 48.2087085336498,
    "WGS84_LON": 16.464807617596,
    "STAND": ""
  },
  {
    "HALTESTELLEN_ID": 214460246,
    "TYP": "stop",
    "DIVA": 60200141,
    "NAME": "Biomull-Werk",
    "GEMEINDE": "Wien",
    "GEMEINDE_ID": 90001,
    "WGS84_LAT": 48.1730881835867,
    "WGS84_LON": 16.470691582707,
    "STAND": ""
  },
  {
    "HALTESTELLEN_ID": 214460247,
    "TYP": "stop",
    "DIVA": 60200142,
    "NAME": "Bischoffgasse",
    "GEMEINDE": "Wien",
    "GEMEINDE_ID": 90001,
    "WGS84_LAT": 48.1833791867911,
    "WGS84_LON": 16.3219934537267,
    "STAND": ""
  },
  {
    "HALTESTELLEN_ID": 214460248,
    "TYP": "stop",
    "DIVA": 60200143,
    "NAME": "Bischofgasse",
    "GEMEINDE": "Wien",
    "GEMEINDE_ID": 90001,
    "WGS84_LAT": 48.1380665348123,
    "WGS84_LON": 16.3976854995666,
    "STAND": ""
  },
  {
    "HALTESTELLEN_ID": 214460249,
    "TYP": "stop",
    "DIVA": 60200144,
    "NAME": "Blaasstraße",
    "GEMEINDE": "Wien",
    "GEMEINDE_ID": 90001,
    "WGS84_LAT": 48.2371247622384,
    "WGS84_LON": 16.3415138448506,
    "STAND": ""
  },
  {
    "HALTESTELLEN_ID": 214460250,
    "TYP": "stop",
    "DIVA": 60200145,
    "NAME": "Blechturmgasse",
    "GEMEINDE": "Wien",
    "GEMEINDE_ID": 90001,
    "WGS84_LAT": 48.1843554668806,
    "WGS84_LON": 16.3682746571645,
    "STAND": ""
  },
  {
    "HALTESTELLEN_ID": 214460251,
    "TYP": "stop",
    "DIVA": 60200146,
    "NAME": "Bleibtreustraße",
    "GEMEINDE": "Wien",
    "GEMEINDE_ID": 90001,
    "WGS84_LAT": 48.1779224569136,
    "WGS84_LON": 16.4492577800279,
    "STAND": ""
  },
  {
    "HALTESTELLEN_ID": 214460252,
    "TYP": "stop",
    "DIVA": 60200147,
    "NAME": "Blériotgasse",
    "GEMEINDE": "Wien",
    "GEMEINDE_ID": 90001,
    "WGS84_LAT": 48.1709734201109,
    "WGS84_LON": 16.4256410712084,
    "STAND": ""
  },
  {
    "HALTESTELLEN_ID": 214460253,
    "TYP": "stop",
    "DIVA": 60200148,
    "NAME": "Blindengasse",
    "GEMEINDE": "Wien",
    "GEMEINDE_ID": 90001,
    "WGS84_LAT": 48.2109713977147,
    "WGS84_LON": 16.3404807822739,
    "STAND": ""
  },
  {
    "HALTESTELLEN_ID": 214460254,
    "TYP": "stop",
    "DIVA": 60200149,
    "NAME": "Blumengasse",
    "GEMEINDE": "Wien",
    "GEMEINDE_ID": 90001,
    "WGS84_LAT": 48.2214941976573,
    "WGS84_LON": 16.3317311914066,
    "STAND": ""
  },
  {
    "HALTESTELLEN_ID": 214460255,
    "TYP": "stop",
    "DIVA": 60200150,
    "NAME": "Hetmanekgasse",
    "GEMEINDE": "Wien",
    "GEMEINDE_ID": 90001,
    "WGS84_LAT": 48.1373171795522,
    "WGS84_LON": 16.3169718712885,
    "STAND": ""
  },
  {
    "HALTESTELLEN_ID": 214460257,
    "TYP": "stop",
    "DIVA": 60200152,
    "NAME": "Bohattaweg",
    "GEMEINDE": "Wien",
    "GEMEINDE_ID": 90001,
    "WGS84_LAT": 48.137940643893,
    "WGS84_LON": 16.2297544403533,
    "STAND": ""
  },
  {
    "HALTESTELLEN_ID": 214460258,
    "TYP": "stop",
    "DIVA": 60200153,
    "NAME": "Borkowskigasse",
    "GEMEINDE": "Wien",
    "GEMEINDE_ID": 90001,
    "WGS84_LAT": 48.2371247622384,
    "WGS84_LON": 16.3301950722707,
    "STAND": ""
  },
  {
    "HALTESTELLEN_ID": 214460260,
    "TYP": "stop",
    "DIVA": 60200155,
    "NAME": "Maculangasse/Wagramer Straße",
    "GEMEINDE": "Wien",
    "GEMEINDE_ID": 90001,
    "WGS84_LAT": 48.262487336849,
    "WGS84_LON": 16.4536864743786,
    "STAND": ""
  },
  {
    "HALTESTELLEN_ID": 214460261,
    "TYP": "stop",
    "DIVA": 60200156,
    "NAME": "Braillegasse",
    "GEMEINDE": "Wien",
    "GEMEINDE_ID": 90001,
    "WGS84_LAT": 48.20277552379,
    "WGS84_LON": 16.2946397533253,
    "STAND": ""
  },
  {
    "HALTESTELLEN_ID": 214460262,
    "TYP": "stop",
    "DIVA": 60200157,
    "NAME": "Brandstätte",
    "GEMEINDE": "Wien",
    "GEMEINDE_ID": 90001,
    "WGS84_LAT": 48.2102650117309,
    "WGS84_LON": 16.3705384116805,
    "STAND": ""
  },
  {
    "HALTESTELLEN_ID": 214460263,
    "TYP": "stop",
    "DIVA": 60200158,
    "NAME": "Braungasse",
    "GEMEINDE": "Wien",
    "GEMEINDE_ID": 90001,
    "WGS84_LAT": 48.2269223505346,
    "WGS84_LON": 16.2960501083213,
    "STAND": ""
  },
  {
    "HALTESTELLEN_ID": 214460264,
    "TYP": "stop",
    "DIVA": 60200159,
    "NAME": "Grimmgasse",
    "GEMEINDE": "Wien",
    "GEMEINDE_ID": 90001,
    "WGS84_LAT": 48.1868769386215,
    "WGS84_LON": 16.3280391155888,
    "STAND": ""
  },
  {
    "HALTESTELLEN_ID": 214460265,
    "TYP": "stop",
    "DIVA": 60200160,
    "NAME": "Braunhubergasse",
    "GEMEINDE": "Wien",
    "GEMEINDE_ID": 90001,
    "WGS84_LAT": 48.1717881835058,
    "WGS84_LON": 16.4186701446036,
    "STAND": ""
  },
  {
    "HALTESTELLEN_ID": 214460266,
    "TYP": "stop",
    "DIVA": 60200161,
    "NAME": "Braunschweiggasse",
    "GEMEINDE": "Wien",
    "GEMEINDE_ID": 90001,
    "WGS84_LAT": 48.1894881182707,
    "WGS84_LON": 16.2954572202338,
    "STAND": ""
  },
  {
    "HALTESTELLEN_ID": 214460267,
    "TYP": "stop",
    "DIVA": 60200162,
    "NAME": "Scheffelstraße",
    "GEMEINDE": "Wien",
    "GEMEINDE_ID": 90001,
    "WGS84_LAT": 48.2516619274407,
    "WGS84_LON": 16.4055457583027,
    "STAND": ""
  },
  {
    "HALTESTELLEN_ID": 214460268,
    "TYP": "stop",
    "DIVA": 60200163,
    "NAME": "Breiteneckergasse",
    "GEMEINDE": "Wien",
    "GEMEINDE_ID": 90001,
    "WGS84_LAT": 48.1440250185469,
    "WGS84_LON": 16.3292877738337,
    "STAND": ""
  },
  {
    "HALTESTELLEN_ID": 214460269,
    "TYP": "stop",
    "DIVA": 60200164,
    "NAME": "Breitenlee Friedhof",
    "GEMEINDE": "Wien",
    "GEMEINDE_ID": 90001,
    "WGS84_LAT": 48.2511654586731,
    "WGS84_LON": 16.4929159028361,
    "STAND": ""
  },
  {
    "HALTESTELLEN_ID": 214460270,
    "TYP": "stop",
    "DIVA": 60200165,
    "NAME": "Breitenlee Ort",
    "GEMEINDE": "Wien",
    "GEMEINDE_ID": 90001,
    "WGS84_LAT": 48.2511953665666,
    "WGS84_LON": 16.4975871423135,
    "STAND": ""
  },
  {
    "HALTESTELLEN_ID": 214460271,
    "TYP": "stop",
    "DIVA": 60200166,
    "NAME": "Breitensee",
    "GEMEINDE": "Wien",
    "GEMEINDE_ID": 90001,
    "WGS84_LAT": 48.1982429836204,
    "WGS84_LON": 16.306362767783,
    "STAND": ""
  },
  {
    "HALTESTELLEN_ID": 214460272,
    "TYP": "stop",
    "DIVA": 60200167,
    "NAME": "Roschégasse",
    "GEMEINDE": "Wien",
    "GEMEINDE_ID": 90001,
    "WGS84_LAT": 48.1539323137541,
    "WGS84_LON": 16.4502908426046,
    "STAND": ""
  },
  {
    "HALTESTELLEN_ID": 214460273,
    "TYP": "stop",
    "DIVA": 60200168,
    "NAME": "Bretschneidergasse",
    "GEMEINDE": "Wien",
    "GEMEINDE_ID": 90001,
    "WGS84_LAT": 48.2542398985997,
    "WGS84_LON": 16.3481254453417,
    "STAND": ""
  },
  {
    "HALTESTELLEN_ID": 214460274,
    "TYP": "stop",
    "DIVA": 60200169,
    "NAME": "Brigittagasse",
    "GEMEINDE": "Wien",
    "GEMEINDE_ID": 90001,
    "WGS84_LAT": 48.2332774054181,
    "WGS84_LON": 16.3747245609045,
    "STAND": ""
  },
  {
    "HALTESTELLEN_ID": 214460275,
    "TYP": "stop",
    "DIVA": 60200170,
    "NAME": "Brigittaplatz",
    "GEMEINDE": "Wien",
    "GEMEINDE_ID": 90001,
    "WGS84_LAT": 48.232643132193,
    "WGS84_LON": 16.3703317991652,
    "STAND": ""
  },
  {
    "HALTESTELLEN_ID": 214460276,
    "TYP": "stop",
    "DIVA": 60200171,
    "NAME": "Brockhausengasse",
    "GEMEINDE": "Wien",
    "GEMEINDE_ID": 90001,
    "WGS84_LAT": 48.2076908108652,
    "WGS84_LON": 16.4770067391544,
    "STAND": ""
  },
  {
    "HALTESTELLEN_ID": 214460277,
    "TYP": "stop",
    "DIVA": 60200172,
    "NAME": "Thaliastraße/Brunnengasse",
    "GEMEINDE": "Wien",
    "GEMEINDE_ID": 90001,
    "WGS84_LAT": 48.2090497655855,
    "WGS84_LON": 16.3354322503771,
    "STAND": ""
  },
  {
    "HALTESTELLEN_ID": 214460278,
    "TYP": "stop",
    "DIVA": 60200173,
    "NAME": "Neulerchenfelder Str./Brunneng",
    "GEMEINDE": "Wien",
    "GEMEINDE_ID": 90001,
    "WGS84_LAT": 48.2110911231869,
    "WGS84_LON": 16.3359442900891,
    "STAND": ""
  },
  {
    "HALTESTELLEN_ID": 214460279,
    "TYP": "stop",
    "DIVA": 60200174,
    "NAME": "Brunner Str./Erlaaer Str.",
    "GEMEINDE": "Wien",
    "GEMEINDE_ID": 90001,
    "WGS84_LAT": 48.1461948378046,
    "WGS84_LON": 16.2968136763128,
    "STAND": ""
  },
  {
    "HALTESTELLEN_ID": 214460280,
    "TYP": "stop",
    "DIVA": 60200175,
    "NAME": "Brückengasse",
    "GEMEINDE": "Wien",
    "GEMEINDE_ID": 90001,
    "WGS84_LAT": 48.1913026899933,
    "WGS84_LON": 16.3476044224769,
    "STAND": ""
  },
  {
    "HALTESTELLEN_ID": 214460281,
    "TYP": "stop",
    "DIVA": 60200176,
    "NAME": "Brünner Straße",
    "GEMEINDE": "Wien",
    "GEMEINDE_ID": 90001,
    "WGS84_LAT": 48.2680486723485,
    "WGS84_LON": 16.4032550543281,
    "STAND": ""
  },
  {
    "HALTESTELLEN_ID": 214460282,
    "TYP": "stop",
    "DIVA": 60200177,
    "NAME": "Bergtaidingweg",
    "GEMEINDE": "Wien",
    "GEMEINDE_ID": 90001,
    "WGS84_LAT": 48.14660841173,
    "WGS84_LON": 16.3973171903001,
    "STAND": ""
  },
  {
    "HALTESTELLEN_ID": 214460283,
    "TYP": "stop",
    "DIVA": 60200178,
    "NAME": "Brünnlbadgasse",
    "GEMEINDE": "Wien",
    "GEMEINDE_ID": 90001,
    "WGS84_LAT": 48.2153950679987,
    "WGS84_LON": 16.345735926686,
    "STAND": ""
  },
  {
    "HALTESTELLEN_ID": 214460284,
    "TYP": "stop",
    "DIVA": 60200179,
    "NAME": "Brüßlgasse",
    "GEMEINDE": "Wien",
    "GEMEINDE_ID": 90001,
    "WGS84_LAT": 48.2060624123431,
    "WGS84_LON": 16.3203764862153,
    "STAND": ""
  },
  {
    "HALTESTELLEN_ID": 214460285,
    "TYP": "stop",
    "DIVA": 60200180,
    "NAME": "Bubergasse",
    "GEMEINDE": "Wien",
    "GEMEINDE_ID": 90001,
    "WGS84_LAT": 48.2704524171516,
    "WGS84_LON": 16.4514766187797,
    "STAND": ""
  },
  {
    "HALTESTELLEN_ID": 214460286,
    "TYP": "stop",
    "DIVA": 60200181,
    "NAME": "Buchbindergasse",
    "GEMEINDE": "Wien",
    "GEMEINDE_ID": 90001,
    "WGS84_LAT": 48.1636938932829,
    "WGS84_LON": 16.270331341737,
    "STAND": ""
  },
  {
    "HALTESTELLEN_ID": 214460287,
    "TYP": "stop",
    "DIVA": 60200182,
    "NAME": "Grünhaufenbrücke",
    "GEMEINDE": "Wien",
    "GEMEINDE_ID": 90001,
    "WGS84_LAT": 48.1909014535943,
    "WGS84_LON": 16.4542613961605,
    "STAND": ""
  },
  {
    "HALTESTELLEN_ID": 214460288,
    "TYP": "stop",
    "DIVA": 60200183,
    "NAME": "Computerstr./Gutheil-Schoder-G",
    "GEMEINDE": "Wien",
    "GEMEINDE_ID": 90001,
    "WGS84_LAT": 48.1599728472277,
    "WGS84_LON": 16.3368695548317,
    "STAND": ""
  },
  {
    "HALTESTELLEN_ID": 214460289,
    "TYP": "stop",
    "DIVA": 60200184,
    "NAME": "Hütteldorf, Bujattigasse",
    "GEMEINDE": "Wien",
    "GEMEINDE_ID": 90001,
    "WGS84_LAT": 48.2026318298611,
    "WGS84_LON": 16.2551408302825,
    "STAND": ""
  },
  {
    "HALTESTELLEN_ID": 214460290,
    "TYP": "stop",
    "DIVA": 60200185,
    "NAME": "Bundessportbad",
    "GEMEINDE": "Wien",
    "GEMEINDE_ID": 90001,
    "WGS84_LAT": 48.240206029116,
    "WGS84_LON": 16.4205655898531,
    "STAND": ""
  },
  {
    "HALTESTELLEN_ID": 214460291,
    "TYP": "stop",
    "DIVA": 60200186,
    "NAME": "Bunsengasse",
    "GEMEINDE": "Wien",
    "GEMEINDE_ID": 90001,
    "WGS84_LAT": 48.2631032995037,
    "WGS84_LON": 16.3910738990755,
    "STAND": ""
  },
  {
    "HALTESTELLEN_ID": 214460292,
    "TYP": "stop",
    "DIVA": 60200187,
    "NAME": "Burgersteingasse",
    "GEMEINDE": "Wien",
    "GEMEINDE_ID": 90001,
    "WGS84_LAT": 48.2025659700089,
    "WGS84_LON": 16.2982509807674,
    "STAND": ""
  },
  {
    "HALTESTELLEN_ID": 214460293,
    "TYP": "stop",
    "DIVA": 60200188,
    "NAME": "Burggasse-Stadthalle",
    "GEMEINDE": "Wien",
    "GEMEINDE_ID": 90001,
    "WGS84_LAT": 48.2022965424591,
    "WGS84_LON": 16.3373097293209,
    "STAND": ""
  },
  {
    "HALTESTELLEN_ID": 214460294,
    "TYP": "stop",
    "DIVA": 60200189,
    "NAME": "Campingplatz Wien-West 2",
    "GEMEINDE": "Wien",
    "GEMEINDE_ID": 90001,
    "WGS84_LAT": 48.214509167342,
    "WGS84_LON": 16.2495443260625,
    "STAND": ""
  },
  {
    "HALTESTELLEN_ID": 214460295,
    "TYP": "stop",
    "DIVA": 60200190,
    "NAME": "Burgring",
    "GEMEINDE": "Wien",
    "GEMEINDE_ID": 90001,
    "WGS84_LAT": 48.2039250607107,
    "WGS84_LON": 16.363720198674,
    "STAND": ""
  },
  {
    "HALTESTELLEN_ID": 214460296,
    "TYP": "stop",
    "DIVA": 60200191,
    "NAME": "Burgstall",
    "GEMEINDE": "Wien",
    "GEMEINDE_ID": 90001,
    "WGS84_LAT": 48.2699920071251,
    "WGS84_LON": 16.3612947474069,
    "STAND": ""
  },
  {
    "HALTESTELLEN_ID": 214460297,
    "TYP": "stop",
    "DIVA": 60200192,
    "NAME": "Rathausplatz/Burgtheater",
    "GEMEINDE": "Wien",
    "GEMEINDE_ID": 90001,
    "WGS84_LAT": 48.2104446023115,
    "WGS84_LON": 16.3606569435552,
    "STAND": ""
  },
  {
    "HALTESTELLEN_ID": 214460298,
    "TYP": "stop",
    "DIVA": 60200193,
    "NAME": "Bärenmühldurchgang",
    "GEMEINDE": "Wien",
    "GEMEINDE_ID": 90001,
    "WGS84_LAT": 48.1995123747969,
    "WGS84_LON": 16.3662893803866,
    "STAND": ""
  },
  {
    "HALTESTELLEN_ID": 214460299,
    "TYP": "stop",
    "DIVA": 60200194,
    "NAME": "Börnergasse",
    "GEMEINDE": "Wien",
    "GEMEINDE_ID": 90001,
    "WGS84_LAT": 48.2475644204551,
    "WGS84_LON": 16.3316323767253,
    "STAND": ""
  },
  {
    "HALTESTELLEN_ID": 214460300,
    "TYP": "stop",
    "DIVA": 60200195,
    "NAME": "Börse",
    "GEMEINDE": "Wien",
    "GEMEINDE_ID": 90001,
    "WGS84_LAT": 48.2155626691014,
    "WGS84_LON": 16.3660019194957,
    "STAND": ""
  },
  {
    "HALTESTELLEN_ID": 214460301,
    "TYP": "stop",
    "DIVA": 60200196,
    "NAME": "Bösendorferstraße/Karlsplatz U",
    "GEMEINDE": "Wien",
    "GEMEINDE_ID": 90001,
    "WGS84_LAT": 48.2012727048458,
    "WGS84_LON": 16.3707719736544,
    "STAND": ""
  },
  {
    "HALTESTELLEN_ID": 214460302,
    "TYP": "stop",
    "DIVA": 60200197,
    "NAME": "Camillo-Sitte-Gasse",
    "GEMEINDE": "Wien",
    "GEMEINDE_ID": 90001,
    "WGS84_LAT": 48.2050027281439,
    "WGS84_LON": 16.3273024970558,
    "STAND": ""
  },
  {
    "HALTESTELLEN_ID": 214460303,
    "TYP": "stop",
    "DIVA": 60200198,
    "NAME": "Breitenfurter Str./Willergasse",
    "GEMEINDE": "Wien",
    "GEMEINDE_ID": 90001,
    "WGS84_LAT": 48.1380665348123,
    "WGS84_LON": 16.257772894065,
    "STAND": ""
  },
  {
    "HALTESTELLEN_ID": 214460304,
    "TYP": "stop",
    "DIVA": 60200199,
    "NAME": "Campingplatz Wien-Süd",
    "GEMEINDE": "Wien",
    "GEMEINDE_ID": 90001,
    "WGS84_LAT": 48.149838968714,
    "WGS84_LON": 16.2994277737896,
    "STAND": ""
  },
  {
    "HALTESTELLEN_ID": 214460305,
    "TYP": "stop",
    "DIVA": 60200200,
    "NAME": "Campingplatz Wien-West 1",
    "GEMEINDE": "Wien",
    "GEMEINDE_ID": 90001,
    "WGS84_LAT": 48.2112826833602,
    "WGS84_LON": 16.2535148796183,
    "STAND": ""
  },
  {
    "HALTESTELLEN_ID": 214460306,
    "TYP": "stop",
    "DIVA": 60200201,
    "NAME": "Campingplatzweg",
    "GEMEINDE": "Wien",
    "GEMEINDE_ID": 90001,
    "WGS84_LAT": 48.2758275467608,
    "WGS84_LON": 16.4811300063085,
    "STAND": ""
  },
  {
    "HALTESTELLEN_ID": 214460307,
    "TYP": "stop",
    "DIVA": 60200202,
    "NAME": "Canisiusgasse",
    "GEMEINDE": "Wien",
    "GEMEINDE_ID": 90001,
    "WGS84_LAT": 48.2280474083223,
    "WGS84_LON": 16.3548089110556,
    "STAND": ""
  },
  {
    "HALTESTELLEN_ID": 214460308,
    "TYP": "stop",
    "DIVA": 60200203,
    "NAME": "Carabelligasse",
    "GEMEINDE": "Wien",
    "GEMEINDE_ID": 90001,
    "WGS84_LAT": 48.2802157205021,
    "WGS84_LON": 16.4108098858676,
    "STAND": ""
  },
  {
    "HALTESTELLEN_ID": 214460309,
    "TYP": "stop",
    "DIVA": 60200204,
    "NAME": "Carlbergergasse",
    "GEMEINDE": "Wien",
    "GEMEINDE_ID": 90001,
    "WGS84_LAT": 48.1412137074689,
    "WGS84_LON": 16.2979545367237,
    "STAND": ""
  },
  {
    "HALTESTELLEN_ID": 214460310,
    "TYP": "stop",
    "DIVA": 60200205,
    "NAME": "Castelligasse",
    "GEMEINDE": "Wien",
    "GEMEINDE_ID": 90001,
    "WGS84_LAT": 48.1886377028103,
    "WGS84_LON": 16.3583392901222,
    "STAND": ""
  },
  {
    "HALTESTELLEN_ID": 214460311,
    "TYP": "stop",
    "DIVA": 60200206,
    "NAME": "Celtesgasse",
    "GEMEINDE": "Wien",
    "GEMEINDE_ID": 90001,
    "WGS84_LAT": 48.2518234282899,
    "WGS84_LON": 16.2962297713781,
    "STAND": ""
  },
  {
    "HALTESTELLEN_ID": 214460312,
    "TYP": "stop",
    "DIVA": 60200207,
    "NAME": "Hafen Freudenau",
    "GEMEINDE": "Wien",
    "GEMEINDE_ID": 90001,
    "WGS84_LAT": 48.1786053286712,
    "WGS84_LON": 16.4723804154411,
    "STAND": ""
  },
  {
    "HALTESTELLEN_ID": 214460313,
    "TYP": "stop",
    "DIVA": 60200208,
    "NAME": "Chimanistraße",
    "GEMEINDE": "Wien",
    "GEMEINDE_ID": 90001,
    "WGS84_LAT": 48.2395060294373,
    "WGS84_LON": 16.343867430895,
    "STAND": ""
  },
  {
    "HALTESTELLEN_ID": 214460314,
    "TYP": "stop",
    "DIVA": 60200209,
    "NAME": "Cobenzl Parkplatz",
    "GEMEINDE": "Wien",
    "GEMEINDE_ID": 90001,
    "WGS84_LAT": 48.2638687573135,
    "WGS84_LON": 16.3211490373596,
    "STAND": ""
  },
  {
    "HALTESTELLEN_ID": 214460315,
    "TYP": "stop",
    "DIVA": 60200210,
    "NAME": "Cobenzlgasse",
    "GEMEINDE": "Wien",
    "GEMEINDE_ID": 90001,
    "WGS84_LAT": 48.2639405183955,
    "WGS84_LON": 16.3299974429082,
    "STAND": ""
  },
  {
    "HALTESTELLEN_ID": 214460316,
    "TYP": "stop",
    "DIVA": 60200211,
    "NAME": "Columbusplatz",
    "GEMEINDE": "Wien",
    "GEMEINDE_ID": 90001,
    "WGS84_LAT": 48.182037520014,
    "WGS84_LON": 16.3737184477863,
    "STAND": ""
  },
  {
    "HALTESTELLEN_ID": 214460317,
    "TYP": "stop",
    "DIVA": 60200212,
    "NAME": "Triester Str./Computerstr.",
    "GEMEINDE": "Wien",
    "GEMEINDE_ID": 90001,
    "WGS84_LAT": 48.1576358204124,
    "WGS84_LON": 16.3420169014097,
    "STAND": ""
  },
  {
    "HALTESTELLEN_ID": 214460318,
    "TYP": "stop",
    "DIVA": 60200213,
    "NAME": "Concordiaplatz",
    "GEMEINDE": "Wien",
    "GEMEINDE_ID": 90001,
    "WGS84_LAT": 48.2137010689159,
    "WGS84_LON": 16.3700623045799,
    "STAND": ""
  },
  {
    "HALTESTELLEN_ID": 214460319,
    "TYP": "stop",
    "DIVA": 60200214,
    "NAME": "Corvinusgasse",
    "GEMEINDE": "Wien",
    "GEMEINDE_ID": 90001,
    "WGS84_LAT": 48.1445644849411,
    "WGS84_LON": 16.2807428158799,
    "STAND": ""
  },
  {
    "HALTESTELLEN_ID": 214460320,
    "TYP": "stop",
    "DIVA": 60200215,
    "NAME": "Cottagegasse",
    "GEMEINDE": "Wien",
    "GEMEINDE_ID": 90001,
    "WGS84_LAT": 48.2338518347618,
    "WGS84_LON": 16.3421336823967,
    "STAND": ""
  },
  {
    "HALTESTELLEN_ID": 214460321,
    "TYP": "stop",
    "DIVA": 60200216,
    "NAME": "Cottagestraße",
    "GEMEINDE": "Wien",
    "GEMEINDE_ID": 90001,
    "WGS84_LAT": 48.2151676084818,
    "WGS84_LON": 16.2262959265094,
    "STAND": ""
  },
  {
    "HALTESTELLEN_ID": 214460322,
    "TYP": "stop",
    "DIVA": 60200217,
    "NAME": "Czartoryskigasse",
    "GEMEINDE": "Wien",
    "GEMEINDE_ID": 90001,
    "WGS84_LAT": 48.2278080363962,
    "WGS84_LON": 16.3274462275013,
    "STAND": ""
  },
  {
    "HALTESTELLEN_ID": 214460323,
    "TYP": "stop",
    "DIVA": 60200218,
    "NAME": "Dahliengasse",
    "GEMEINDE": "Wien",
    "GEMEINDE_ID": 90001,
    "WGS84_LAT": 48.2869108450886,
    "WGS84_LON": 16.4449009508999,
    "STAND": ""
  },
  {
    "HALTESTELLEN_ID": 214460324,
    "TYP": "stop",
    "DIVA": 60200219,
    "NAME": "Dammstraße",
    "GEMEINDE": "Wien",
    "GEMEINDE_ID": 90001,
    "WGS84_LAT": 48.2345997799714,
    "WGS84_LON": 16.3751377859352,
    "STAND": ""
  },
  {
    "HALTESTELLEN_ID": 214460325,
    "TYP": "stop",
    "DIVA": 60200220,
    "NAME": "Dampfkraftwerk Donaustadt",
    "GEMEINDE": "Wien",
    "GEMEINDE_ID": 90001,
    "WGS84_LAT": 48.1980274235041,
    "WGS84_LON": 16.4600914623544,
    "STAND": ""
  },
  {
    "HALTESTELLEN_ID": 214460326,
    "TYP": "stop",
    "DIVA": 60200221,
    "NAME": "Dampfschiffhaufen",
    "GEMEINDE": "Wien",
    "GEMEINDE_ID": 90001,
    "WGS84_LAT": 48.2171368955376,
    "WGS84_LON": 16.432225722241,
    "STAND": ""
  },
  {
    "HALTESTELLEN_ID": 214460327,
    "TYP": "stop",
    "DIVA": 60200222,
    "NAME": "Danzergasse",
    "GEMEINDE": "Wien",
    "GEMEINDE_ID": 90001,
    "WGS84_LAT": 48.2087324798247,
    "WGS84_LON": 16.4886129726252,
    "STAND": ""
  },
  {
    "HALTESTELLEN_ID": 214460328,
    "TYP": "stop",
    "DIVA": 60200223,
    "NAME": "Daphneweg",
    "GEMEINDE": "Wien",
    "GEMEINDE_ID": 90001,
    "WGS84_LAT": 48.2443519846746,
    "WGS84_LON": 16.5302498860441,
    "STAND": ""
  },
  {
    "HALTESTELLEN_ID": 214460329,
    "TYP": "stop",
    "DIVA": 60200224,
    "NAME": "Daringergasse",
    "GEMEINDE": "Wien",
    "GEMEINDE_ID": 90001,
    "WGS84_LAT": 48.2466491660105,
    "WGS84_LON": 16.3344620698703,
    "STAND": ""
  },
  {
    "HALTESTELLEN_ID": 214460330,
    "TYP": "stop",
    "DIVA": 60200225,
    "NAME": "Davidgasse",
    "GEMEINDE": "Wien",
    "GEMEINDE_ID": 90001,
    "WGS84_LAT": 48.1754724298752,
    "WGS84_LON": 16.3563270638857,
    "STAND": ""
  },
  {
    "HALTESTELLEN_ID": 214460331,
    "TYP": "stop",
    "DIVA": 60200226,
    "NAME": "Deindorfstraße",
    "GEMEINDE": "Wien",
    "GEMEINDE_ID": 90001,
    "WGS84_LAT": 48.2168555734528,
    "WGS84_LON": 16.5432035924411,
    "STAND": ""
  },
  {
    "HALTESTELLEN_ID": 214460332,
    "TYP": "stop",
    "DIVA": 60200227,
    "NAME": "Deißenhofergasse",
    "GEMEINDE": "Wien",
    "GEMEINDE_ID": 90001,
    "WGS84_LAT": 48.1585466742932,
    "WGS84_LON": 16.2805901022816,
    "STAND": ""
  },
  {
    "HALTESTELLEN_ID": 214460333,
    "TYP": "stop",
    "DIVA": 60200228,
    "NAME": "Laxenburger Str./Heizwerkstr.",
    "GEMEINDE": "Wien",
    "GEMEINDE_ID": 90001,
    "WGS84_LAT": 48.1396071748666,
    "WGS84_LON": 16.358743532,
    "STAND": ""
  },
  {
    "HALTESTELLEN_ID": 214460334,
    "TYP": "stop",
    "DIVA": 60200229,
    "NAME": "Dietmayrgasse",
    "GEMEINDE": "Wien",
    "GEMEINDE_ID": 90001,
    "WGS84_LAT": 48.2393145748656,
    "WGS84_LON": 16.3686699158895,
    "STAND": ""
  },
  {
    "HALTESTELLEN_ID": 214460335,
    "TYP": "stop",
    "DIVA": 60200230,
    "NAME": "Dirnelwiese",
    "GEMEINDE": "Wien",
    "GEMEINDE_ID": 90001,
    "WGS84_LAT": 48.2929118001261,
    "WGS84_LON": 16.3792969857007,
    "STAND": ""
  },
  {
    "HALTESTELLEN_ID": 214460336,
    "TYP": "stop",
    "DIVA": 60200231,
    "NAME": "Dobrowskygasse",
    "GEMEINDE": "Wien",
    "GEMEINDE_ID": 90001,
    "WGS84_LAT": 48.1435514822615,
    "WGS84_LON": 16.3317401745594,
    "STAND": ""
  },
  {
    "HALTESTELLEN_ID": 214460337,
    "TYP": "stop",
    "DIVA": 60200232,
    "NAME": "Doeltergasse",
    "GEMEINDE": "Wien",
    "GEMEINDE_ID": 90001,
    "WGS84_LAT": 48.2594911407954,
    "WGS84_LON": 16.4382534177974,
    "STAND": ""
  },
  {
    "HALTESTELLEN_ID": 214460338,
    "TYP": "stop",
    "DIVA": 60200233,
    "NAME": "Dommayergasse",
    "GEMEINDE": "Wien",
    "GEMEINDE_ID": 90001,
    "WGS84_LAT": 48.1864696784265,
    "WGS84_LON": 16.2989157340777,
    "STAND": ""
  },
  {
    "HALTESTELLEN_ID": 214460339,
    "TYP": "stop",
    "DIVA": 60200234,
    "NAME": "Donauinsel",
    "GEMEINDE": "Wien",
    "GEMEINDE_ID": 90001,
    "WGS84_LAT": 48.2289989006584,
    "WGS84_LON": 16.4109805657716,
    "STAND": ""
  },
  {
    "HALTESTELLEN_ID": 214460340,
    "TYP": "stop",
    "DIVA": 60200235,
    "NAME": "Floridsdorfer Brücke",
    "GEMEINDE": "Wien",
    "GEMEINDE_ID": 90001,
    "WGS84_LAT": 48.2485634049766,
    "WGS84_LON": 16.3877411493714,
    "STAND": ""
  },
  {
    "HALTESTELLEN_ID": 214460341,
    "TYP": "stop",
    "DIVA": 60200236,
    "NAME": "Donaustadtstraße",
    "GEMEINDE": "Wien",
    "GEMEINDE_ID": 90001,
    "WGS84_LAT": 48.233684293536,
    "WGS84_LON": 16.4436882252664,
    "STAND": ""
  },
  {
    "HALTESTELLEN_ID": 214460342,
    "TYP": "stop",
    "DIVA": 60200237,
    "NAME": "Donauwarte",
    "GEMEINDE": "Wien",
    "GEMEINDE_ID": 90001,
    "WGS84_LAT": 48.2845556959609,
    "WGS84_LON": 16.3459784718127,
    "STAND": ""
  },
  {
    "HALTESTELLEN_ID": 214460343,
    "TYP": "stop",
    "DIVA": 60200238,
    "NAME": "Siebeckstraße",
    "GEMEINDE": "Wien",
    "GEMEINDE_ID": 90001,
    "WGS84_LAT": 48.2418333417788,
    "WGS84_LON": 16.4346511735081,
    "STAND": ""
  },
  {
    "HALTESTELLEN_ID": 214460344,
    "TYP": "stop",
    "DIVA": 60200239,
    "NAME": "Dopschstraße",
    "GEMEINDE": "Wien",
    "GEMEINDE_ID": 90001,
    "WGS84_LAT": 48.2692385999523,
    "WGS84_LON": 16.4388283395793,
    "STAND": ""
  },
  {
    "HALTESTELLEN_ID": 214460345,
    "TYP": "stop",
    "DIVA": 60200240,
    "NAME": "Dorfmeistergasse",
    "GEMEINDE": "Wien",
    "GEMEINDE_ID": 90001,
    "WGS84_LAT": 48.1645267474588,
    "WGS84_LON": 16.2961758724611,
    "STAND": ""
  },
  {
    "HALTESTELLEN_ID": 214460346,
    "TYP": "stop",
    "DIVA": 60200241,
    "NAME": "Dornbacher Straße",
    "GEMEINDE": "Wien",
    "GEMEINDE_ID": 90001,
    "WGS84_LAT": 48.228161109595,
    "WGS84_LON": 16.3018711913624,
    "STAND": ""
  },
  {
    "HALTESTELLEN_ID": 214460347,
    "TYP": "stop",
    "DIVA": 60200242,
    "NAME": "Dostalgasse",
    "GEMEINDE": "Wien",
    "GEMEINDE_ID": 90001,
    "WGS84_LAT": 48.1597331570693,
    "WGS84_LON": 16.2635580444947,
    "STAND": ""
  },
  {
    "HALTESTELLEN_ID": 214460348,
    "TYP": "stop",
    "DIVA": 60200243,
    "NAME": "Dostgasse",
    "GEMEINDE": "Wien",
    "GEMEINDE_ID": 90001,
    "WGS84_LAT": 48.2201535288135,
    "WGS84_LON": 16.2531735198103,
    "STAND": ""
  },
  {
    "HALTESTELLEN_ID": 214460349,
    "TYP": "stop",
    "DIVA": 60200244,
    "NAME": "Dr.-Adolf-Schärf-Heim",
    "GEMEINDE": "Wien",
    "GEMEINDE_ID": 90001,
    "WGS84_LAT": 48.2458296105496,
    "WGS84_LON": 16.3698826415231,
    "STAND": ""
  },
  {
    "HALTESTELLEN_ID": 214460350,
    "TYP": "stop",
    "DIVA": 60200245,
    "NAME": "Stubentor",
    "GEMEINDE": "Wien",
    "GEMEINDE_ID": 90001,
    "WGS84_LAT": 48.2070681940144,
    "WGS84_LON": 16.3802761493604,
    "STAND": ""
  },
  {
    "HALTESTELLEN_ID": 214460351,
    "TYP": "stop",
    "DIVA": 60200246,
    "NAME": "Ring/Volkstheater U",
    "GEMEINDE": "Wien",
    "GEMEINDE_ID": 90001,
    "WGS84_LAT": 48.206780829838,
    "WGS84_LON": 16.3598574429523,
    "STAND": ""
  },
  {
    "HALTESTELLEN_ID": 214460352,
    "TYP": "stop",
    "DIVA": 60200247,
    "NAME": "Dr.-Neumann-Gasse",
    "GEMEINDE": "Wien",
    "GEMEINDE_ID": 90001,
    "WGS84_LAT": 48.1379886023749,
    "WGS84_LON": 16.2879742539171,
    "STAND": ""
  },
  {
    "HALTESTELLEN_ID": 214460353,
    "TYP": "stop",
    "DIVA": 60200248,
    "NAME": "Dr.-Schober-Straße",
    "GEMEINDE": "Wien",
    "GEMEINDE_ID": 90001,
    "WGS84_LAT": 48.1667616058592,
    "WGS84_LON": 16.2726669614757,
    "STAND": ""
  },
  {
    "HALTESTELLEN_ID": 214460354,
    "TYP": "stop",
    "DIVA": 60200249,
    "NAME": "Draugasse",
    "GEMEINDE": "Wien",
    "GEMEINDE_ID": 90001,
    "WGS84_LAT": 48.285470271845,
    "WGS84_LON": 16.4386307102168,
    "STAND": ""
  },
  {
    "HALTESTELLEN_ID": 214460355,
    "TYP": "stop",
    "DIVA": 60200250,
    "NAME": "Dunantgasse",
    "GEMEINDE": "Wien",
    "GEMEINDE_ID": 90001,
    "WGS84_LAT": 48.2600293925476,
    "WGS84_LON": 16.3889269255464,
    "STAND": ""
  },
  {
    "HALTESTELLEN_ID": 214460356,
    "TYP": "stop",
    "DIVA": 60200251,
    "NAME": "Dänenstraße",
    "GEMEINDE": "Wien",
    "GEMEINDE_ID": 90001,
    "WGS84_LAT": 48.2371008293422,
    "WGS84_LON": 16.3345519013987,
    "STAND": ""
  },
  {
    "HALTESTELLEN_ID": 214460357,
    "TYP": "stop",
    "DIVA": 60200252,
    "NAME": "Döblinger Bad",
    "GEMEINDE": "Wien",
    "GEMEINDE_ID": 90001,
    "WGS84_LAT": 48.2512312560157,
    "WGS84_LON": 16.3572702949341,
    "STAND": ""
  },
  {
    "HALTESTELLEN_ID": 214460358,
    "TYP": "stop",
    "DIVA": 60200253,
    "NAME": "Döblinger Friedhof",
    "GEMEINDE": "Wien",
    "GEMEINDE_ID": 90001,
    "WGS84_LAT": 48.2391111535981,
    "WGS84_LON": 16.3293955716678,
    "STAND": ""
  },
  {
    "HALTESTELLEN_ID": 214460359,
    "TYP": "stop",
    "DIVA": 60200254,
    "NAME": "Döblinger Steg",
    "GEMEINDE": "Wien",
    "GEMEINDE_ID": 90001,
    "WGS84_LAT": 48.2407743978774,
    "WGS84_LON": 16.3654000482553,
    "STAND": ""
  },
  {
    "HALTESTELLEN_ID": 214460360,
    "TYP": "stop",
    "DIVA": 60200255,
    "NAME": "Dörmanngasse",
    "GEMEINDE": "Wien",
    "GEMEINDE_ID": 90001,
    "WGS84_LAT": 48.2224757365113,
    "WGS84_LON": 16.5340856923073,
    "STAND": ""
  },
  {
    "HALTESTELLEN_ID": 214460361,
    "TYP": "stop",
    "DIVA": 60200256,
    "NAME": "Kraftwerk Simmering",
    "GEMEINDE": "Wien",
    "GEMEINDE_ID": 90001,
    "WGS84_LAT": 48.1850142956962,
    "WGS84_LON": 16.4308063840921,
    "STAND": ""
  },
  {
    "HALTESTELLEN_ID": 214460362,
    "TYP": "stop",
    "DIVA": 60200257,
    "NAME": "Eberstorferweg",
    "GEMEINDE": "Wien",
    "GEMEINDE_ID": 90001,
    "WGS84_LAT": 48.1547353621675,
    "WGS84_LON": 16.2800870457225,
    "STAND": ""
  },
  {
    "HALTESTELLEN_ID": 214460363,
    "TYP": "stop",
    "DIVA": 60200258,
    "NAME": "Edelsteingasse",
    "GEMEINDE": "Wien",
    "GEMEINDE_ID": 90001,
    "WGS84_LAT": 48.2622959682994,
    "WGS84_LON": 16.425605138597,
    "STAND": ""
  },
  {
    "HALTESTELLEN_ID": 214460364,
    "TYP": "stop",
    "DIVA": 60200259,
    "NAME": "Edenstraße",
    "GEMEINDE": "Wien",
    "GEMEINDE_ID": 90001,
    "WGS84_LAT": 48.2148024739865,
    "WGS84_LON": 16.2463283573453,
    "STAND": ""
  },
  {
    "HALTESTELLEN_ID": 214460365,
    "TYP": "stop",
    "DIVA": 60200260,
    "NAME": "Edmund-Hawranek-Platz",
    "GEMEINDE": "Wien",
    "GEMEINDE_ID": 90001,
    "WGS84_LAT": 48.2914056506059,
    "WGS84_LON": 16.3865463900435,
    "STAND": ""
  },
  {
    "HALTESTELLEN_ID": 214460366,
    "TYP": "stop",
    "DIVA": 60200261,
    "NAME": "Eduard-Kittenberger-Gasse",
    "GEMEINDE": "Wien",
    "GEMEINDE_ID": 90001,
    "WGS84_LAT": 48.1368016167822,
    "WGS84_LON": 16.3034701925681,
    "STAND": ""
  },
  {
    "HALTESTELLEN_ID": 214460367,
    "TYP": "stop",
    "DIVA": 60200262,
    "NAME": "Albrechtskreithgasse",
    "GEMEINDE": "Wien",
    "GEMEINDE_ID": 90001,
    "WGS84_LAT": 48.2192796811127,
    "WGS84_LON": 16.3204663177437,
    "STAND": ""
  },
  {
    "HALTESTELLEN_ID": 214460368,
    "TYP": "stop",
    "DIVA": 60200263,
    "NAME": "Egon-Friedell-Gasse",
    "GEMEINDE": "Wien",
    "GEMEINDE_ID": 90001,
    "WGS84_LAT": 48.2738904128279,
    "WGS84_LON": 16.436411871465,
    "STAND": ""
  },
  {
    "HALTESTELLEN_ID": 214460369,
    "TYP": "stop",
    "DIVA": 60200264,
    "NAME": "Eibesbrunnergasse",
    "GEMEINDE": "Wien",
    "GEMEINDE_ID": 90001,
    "WGS84_LAT": 48.171033329625,
    "WGS84_LON": 16.3374624429192,
    "STAND": ""
  },
  {
    "HALTESTELLEN_ID": 214460371,
    "TYP": "stop",
    "DIVA": 60200266,
    "NAME": "Eichbachgasse",
    "GEMEINDE": "Wien",
    "GEMEINDE_ID": 90001,
    "WGS84_LAT": 48.2216318536312,
    "WGS84_LON": 16.2473793862277,
    "STAND": ""
  },
  {
    "HALTESTELLEN_ID": 214460372,
    "TYP": "stop",
    "DIVA": 60200267,
    "NAME": "Eichenstraße",
    "GEMEINDE": "Wien",
    "GEMEINDE_ID": 90001,
    "WGS84_LAT": 48.180426275557,
    "WGS84_LON": 16.3498412275344,
    "STAND": ""
  },
  {
    "HALTESTELLEN_ID": 214460373,
    "TYP": "stop",
    "DIVA": 60200268,
    "NAME": "Einsiedeleigasse",
    "GEMEINDE": "Wien",
    "GEMEINDE_ID": 90001,
    "WGS84_LAT": 48.1833851762962,
    "WGS84_LON": 16.2643485619447,
    "STAND": ""
  },
  {
    "HALTESTELLEN_ID": 214460374,
    "TYP": "stop",
    "DIVA": 60200269,
    "NAME": "Einsiedlerplatz",
    "GEMEINDE": "Wien",
    "GEMEINDE_ID": 90001,
    "WGS84_LAT": 48.1852598569974,
    "WGS84_LON": 16.3494729182679,
    "STAND": ""
  },
  {
    "HALTESTELLEN_ID": 214460375,
    "TYP": "stop",
    "DIVA": 60200270,
    "NAME": "Luzegasse",
    "GEMEINDE": "Wien",
    "GEMEINDE_ID": 90001,
    "WGS84_LAT": 48.1608237382456,
    "WGS84_LON": 16.450156095312,
    "STAND": ""
  },
  {
    "HALTESTELLEN_ID": 214460376,
    "TYP": "stop",
    "DIVA": 60200271,
    "NAME": "Eipeldauer Straße",
    "GEMEINDE": "Wien",
    "GEMEINDE_ID": 90001,
    "WGS84_LAT": 48.2630434976295,
    "WGS84_LON": 16.4362591578667,
    "STAND": ""
  },
  {
    "HALTESTELLEN_ID": 214460377,
    "TYP": "stop",
    "DIVA": 60200272,
    "NAME": "Eisenstadtplatz",
    "GEMEINDE": "Wien",
    "GEMEINDE_ID": 90001,
    "WGS84_LAT": 48.1694756595115,
    "WGS84_LON": 16.3845700964185,
    "STAND": ""
  },
  {
    "HALTESTELLEN_ID": 214460378,
    "TYP": "stop",
    "DIVA": 60200273,
    "NAME": "Eisstoßgasse",
    "GEMEINDE": "Wien",
    "GEMEINDE_ID": 90001,
    "WGS84_LAT": 48.2179569106669,
    "WGS84_LON": 16.4409214141913,
    "STAND": ""
  },
  {
    "HALTESTELLEN_ID": 214460379,
    "TYP": "stop",
    "DIVA": 60200274,
    "NAME": "Elderschplatz",
    "GEMEINDE": "Wien",
    "GEMEINDE_ID": 90001,
    "WGS84_LAT": 48.2179449397375,
    "WGS84_LON": 16.412256173475,
    "STAND": ""
  },
  {
    "HALTESTELLEN_ID": 214460380,
    "TYP": "stop",
    "DIVA": 60200275,
    "NAME": "Elsbeergasse",
    "GEMEINDE": "Wien",
    "GEMEINDE_ID": 90001,
    "WGS84_LAT": 48.2184596871705,
    "WGS84_LON": 16.2544042117495,
    "STAND": ""
  },
  {
    "HALTESTELLEN_ID": 214460381,
    "TYP": "stop",
    "DIVA": 60200276,
    "NAME": "Elterleinplatz",
    "GEMEINDE": "Wien",
    "GEMEINDE_ID": 90001,
    "WGS84_LAT": 48.2181783723543,
    "WGS84_LON": 16.3310574549435,
    "STAND": ""
  },
  {
    "HALTESTELLEN_ID": 214460382,
    "TYP": "stop",
    "DIVA": 60200277,
    "NAME": "Embelgasse",
    "GEMEINDE": "Wien",
    "GEMEINDE_ID": 90001,
    "WGS84_LAT": 48.1827143473756,
    "WGS84_LON": 16.3524193923998,
    "STAND": ""
  },
  {
    "HALTESTELLEN_ID": 214460383,
    "TYP": "stop",
    "DIVA": 60200278,
    "NAME": "Endemanngasse",
    "GEMEINDE": "Wien",
    "GEMEINDE_ID": 90001,
    "WGS84_LAT": 48.153093294524,
    "WGS84_LON": 16.2904356377956,
    "STAND": ""
  },
  {
    "HALTESTELLEN_ID": 214460384,
    "TYP": "stop",
    "DIVA": 60200279,
    "NAME": "Engerthstraße/Innstraße",
    "GEMEINDE": "Wien",
    "GEMEINDE_ID": 90001,
    "WGS84_LAT": 48.2335167517616,
    "WGS84_LON": 16.3925830687528,
    "STAND": ""
  },
  {
    "HALTESTELLEN_ID": 214460385,
    "TYP": "stop",
    "DIVA": 60200280,
    "NAME": "Engerthstraße/Traisengasse",
    "GEMEINDE": "Wien",
    "GEMEINDE_ID": 90001,
    "WGS84_LAT": 48.2363289874361,
    "WGS84_LON": 16.3892233695902,
    "STAND": ""
  },
  {
    "HALTESTELLEN_ID": 214460386,
    "TYP": "stop",
    "DIVA": 60200281,
    "NAME": "Englisch-Feld-Gasse",
    "GEMEINDE": "Wien",
    "GEMEINDE_ID": 90001,
    "WGS84_LAT": 48.2099237878926,
    "WGS84_LON": 16.5359991038625,
    "STAND": ""
  },
  {
    "HALTESTELLEN_ID": 214460387,
    "TYP": "stop",
    "DIVA": 60200282,
    "NAME": "Donaumarina",
    "GEMEINDE": "Wien",
    "GEMEINDE_ID": 90001,
    "WGS84_LAT": 48.2061222808525,
    "WGS84_LON": 16.4309680808432,
    "STAND": ""
  },
  {
    "HALTESTELLEN_ID": 214460388,
    "TYP": "stop",
    "DIVA": 60200283,
    "NAME": "Erdbergstr./Schlachthausgasse",
    "GEMEINDE": "Wien",
    "GEMEINDE_ID": 90001,
    "WGS84_LAT": 48.1952909287469,
    "WGS84_LON": 16.4079712095698,
    "STAND": ""
  },
  {
    "HALTESTELLEN_ID": 214460389,
    "TYP": "stop",
    "DIVA": 60200284,
    "NAME": "Ottakringer Str./Erdbrustgasse",
    "GEMEINDE": "Wien",
    "GEMEINDE_ID": 90001,
    "WGS84_LAT": 48.2144014216221,
    "WGS84_LON": 16.3061651384205,
    "STAND": ""
  },
  {
    "HALTESTELLEN_ID": 214460390,
    "TYP": "stop",
    "DIVA": 60200285,
    "NAME": "Erlaaer Straße",
    "GEMEINDE": "Wien",
    "GEMEINDE_ID": 90001,
    "WGS84_LAT": 48.1418491132051,
    "WGS84_LON": 16.3165316967992,
    "STAND": ""
  },
  {
    "HALTESTELLEN_ID": 214460391,
    "TYP": "stop",
    "DIVA": 60200286,
    "NAME": "Erlachplatz",
    "GEMEINDE": "Wien",
    "GEMEINDE_ID": 90001,
    "WGS84_LAT": 48.1786173087962,
    "WGS84_LON": 16.3694604333396,
    "STAND": ""
  },
  {
    "HALTESTELLEN_ID": 214460392,
    "TYP": "stop",
    "DIVA": 60200287,
    "NAME": "Erndtgasse",
    "GEMEINDE": "Wien",
    "GEMEINDE_ID": 90001,
    "WGS84_LAT": 48.2373222082052,
    "WGS84_LON": 16.3226582070369,
    "STAND": ""
  },
  {
    "HALTESTELLEN_ID": 214460393,
    "TYP": "stop",
    "DIVA": 60200288,
    "NAME": "Erzherzog-Karl-Straße",
    "GEMEINDE": "Wien",
    "GEMEINDE_ID": 90001,
    "WGS84_LAT": 48.2295673939261,
    "WGS84_LON": 16.4532283335837,
    "STAND": ""
  },
  {
    "HALTESTELLEN_ID": 214460394,
    "TYP": "stop",
    "DIVA": 60200289,
    "NAME": "Erdberg",
    "GEMEINDE": "Wien",
    "GEMEINDE_ID": 90001,
    "WGS84_LAT": 48.1915242669567,
    "WGS84_LON": 16.4139989051262,
    "STAND": ""
  },
  {
    "HALTESTELLEN_ID": 214460395,
    "TYP": "stop",
    "DIVA": 60200290,
    "NAME": "Donaustadtbrücke",
    "GEMEINDE": "Wien",
    "GEMEINDE_ID": 90001,
    "WGS84_LAT": 48.2117915115908,
    "WGS84_LON": 16.4401308967413,
    "STAND": ""
  },
  {
    "HALTESTELLEN_ID": 214460396,
    "TYP": "stop",
    "DIVA": 60200291,
    "NAME": "Eselstiege",
    "GEMEINDE": "Wien",
    "GEMEINDE_ID": 90001,
    "WGS84_LAT": 48.2243908800855,
    "WGS84_LON": 16.2868154272006,
    "STAND": ""
  },
  {
    "HALTESTELLEN_ID": 214460397,
    "TYP": "stop",
    "DIVA": 60200292,
    "NAME": "Eslarngasse",
    "GEMEINDE": "Wien",
    "GEMEINDE_ID": 90001,
    "WGS84_LAT": 48.1967280558147,
    "WGS84_LON": 16.3958798858455,
    "STAND": ""
  },
  {
    "HALTESTELLEN_ID": 214460398,
    "TYP": "stop",
    "DIVA": 60200293,
    "NAME": "Esterházygasse",
    "GEMEINDE": "Wien",
    "GEMEINDE_ID": 90001,
    "WGS84_LAT": 48.1951232612965,
    "WGS84_LON": 16.350937172181,
    "STAND": ""
  },
  {
    "HALTESTELLEN_ID": 214460399,
    "TYP": "stop",
    "DIVA": 60200294,
    "NAME": "Etrichstraße",
    "GEMEINDE": "Wien",
    "GEMEINDE_ID": 90001,
    "WGS84_LAT": 48.148436488434,
    "WGS84_LON": 16.4614389352806,
    "STAND": ""
  },
  {
    "HALTESTELLEN_ID": 214460400,
    "TYP": "stop",
    "DIVA": 60200295,
    "NAME": "Daumegasse",
    "GEMEINDE": "Wien",
    "GEMEINDE_ID": 90001,
    "WGS84_LAT": 48.1639874909027,
    "WGS84_LON": 16.3743921842494,
    "STAND": ""
  },
  {
    "HALTESTELLEN_ID": 214460401,
    "TYP": "stop",
    "DIVA": 60200296,
    "NAME": "Evangelischer Friedhof",
    "GEMEINDE": "Wien",
    "GEMEINDE_ID": 90001,
    "WGS84_LAT": 48.1798452567679,
    "WGS84_LON": 16.360270667983,
    "STAND": ""
  },
  {
    "HALTESTELLEN_ID": 214460402,
    "TYP": "stop",
    "DIVA": 60200297,
    "NAME": "Eßling Schule",
    "GEMEINDE": "Wien",
    "GEMEINDE_ID": 90001,
    "WGS84_LAT": 48.2141320563303,
    "WGS84_LON": 16.5262074672656,
    "STAND": ""
  },
  {
    "HALTESTELLEN_ID": 214460403,
    "TYP": "stop",
    "DIVA": 60200298,
    "NAME": "Eßling Friedhof",
    "GEMEINDE": "Wien",
    "GEMEINDE_ID": 90001,
    "WGS84_LAT": 48.2162629963445,
    "WGS84_LON": 16.5316512578873,
    "STAND": ""
  },
  {
    "HALTESTELLEN_ID": 214460404,
    "TYP": "stop",
    "DIVA": 60200299,
    "NAME": "Aspernstraße",
    "GEMEINDE": "Wien",
    "GEMEINDE_ID": 90001,
    "WGS84_LAT": 48.2224458118244,
    "WGS84_LON": 16.4747609509441,
    "STAND": ""
  },
  {
    "HALTESTELLEN_ID": 214460405,
    "TYP": "stop",
    "DIVA": 60200300,
    "NAME": "Fasangasse",
    "GEMEINDE": "Wien",
    "GEMEINDE_ID": 90001,
    "WGS84_LAT": 48.1884101244485,
    "WGS84_LON": 16.3850282372134,
    "STAND": ""
  },
  {
    "HALTESTELLEN_ID": 214460406,
    "TYP": "stop",
    "DIVA": 60200301,
    "NAME": "Heiligenstadt, 12.-Februar-Pl.",
    "GEMEINDE": "Wien",
    "GEMEINDE_ID": 90001,
    "WGS84_LAT": 48.2489282986487,
    "WGS84_LON": 16.3627140855558,
    "STAND": ""
  },
  {
    "HALTESTELLEN_ID": 214460407,
    "TYP": "stop",
    "DIVA": 60200302,
    "NAME": "Diesterweggasse",
    "GEMEINDE": "Wien",
    "GEMEINDE_ID": 90001,
    "WGS84_LAT": 48.1937579487766,
    "WGS84_LON": 16.3063358183245,
    "STAND": ""
  },
  {
    "HALTESTELLEN_ID": 214460408,
    "TYP": "stop",
    "DIVA": 60200303,
    "NAME": "Wattmanngasse/Elisabethallee",
    "GEMEINDE": "Wien",
    "GEMEINDE_ID": 90001,
    "WGS84_LAT": 48.1763829670413,
    "WGS84_LON": 16.2953584055525,
    "STAND": ""
  },
  {
    "HALTESTELLEN_ID": 214460409,
    "TYP": "stop",
    "DIVA": 60200304,
    "NAME": "Döblinger Frhf./F.-Dahn-Str.",
    "GEMEINDE": "Wien",
    "GEMEINDE_ID": 90001,
    "WGS84_LAT": 48.2400385086972,
    "WGS84_LON": 16.325990956741,
    "STAND": ""
  },
  {
    "HALTESTELLEN_ID": 214460410,
    "TYP": "stop",
    "DIVA": 60200305,
    "NAME": "Felmayergasse",
    "GEMEINDE": "Wien",
    "GEMEINDE_ID": 90001,
    "WGS84_LAT": 48.2729696505787,
    "WGS84_LON": 16.4322886043109,
    "STAND": ""
  },
  {
    "HALTESTELLEN_ID": 214460411,
    "TYP": "stop",
    "DIVA": 60200306,
    "NAME": "Fendigasse",
    "GEMEINDE": "Wien",
    "GEMEINDE_ID": 90001,
    "WGS84_LAT": 48.1839362077705,
    "WGS84_LON": 16.3557880747153,
    "STAND": ""
  },
  {
    "HALTESTELLEN_ID": 214460412,
    "TYP": "stop",
    "DIVA": 60200307,
    "NAME": "Sonnleithnergasse",
    "GEMEINDE": "Wien",
    "GEMEINDE_ID": 90001,
    "WGS84_LAT": 48.1789287910659,
    "WGS84_LON": 16.3639627438008,
    "STAND": ""
  },
  {
    "HALTESTELLEN_ID": 214460413,
    "TYP": "stop",
    "DIVA": 60200308,
    "NAME": "Gspöttgraben",
    "GEMEINDE": "Wien",
    "GEMEINDE_ID": 90001,
    "WGS84_LAT": 48.2558847078683,
    "WGS84_LON": 16.3145554031742,
    "STAND": ""
  },
  {
    "HALTESTELLEN_ID": 214460414,
    "TYP": "stop",
    "DIVA": 60200309,
    "NAME": "Fernsprechamt Heiligenstadt",
    "GEMEINDE": "Wien",
    "GEMEINDE_ID": 90001,
    "WGS84_LAT": 48.2541262552779,
    "WGS84_LON": 16.3605760951796,
    "STAND": ""
  },
  {
    "HALTESTELLEN_ID": 214460416,
    "TYP": "stop",
    "DIVA": 60200311,
    "NAME": "Feuerwache Am Steinhof",
    "GEMEINDE": "Wien",
    "GEMEINDE_ID": 90001,
    "WGS84_LAT": 48.2153352103291,
    "WGS84_LON": 16.2780568531804,
    "STAND": ""
  },
  {
    "HALTESTELLEN_ID": 214460417,
    "TYP": "stop",
    "DIVA": 60200312,
    "NAME": "Feuerwache Grinzing",
    "GEMEINDE": "Wien",
    "GEMEINDE_ID": 90001,
    "WGS84_LAT": 48.2615304869365,
    "WGS84_LON": 16.332494759398,
    "STAND": ""
  },
  {
    "HALTESTELLEN_ID": 214460419,
    "TYP": "stop",
    "DIVA": 60200314,
    "NAME": "Fickeysstraße",
    "GEMEINDE": "Wien",
    "GEMEINDE_ID": 90001,
    "WGS84_LAT": 48.1672409193752,
    "WGS84_LON": 16.4235569797492,
    "STAND": ""
  },
  {
    "HALTESTELLEN_ID": 214460420,
    "TYP": "stop",
    "DIVA": 60200315,
    "NAME": "Filmteichstraße",
    "GEMEINDE": "Wien",
    "GEMEINDE_ID": 90001,
    "WGS84_LAT": 48.1526258350019,
    "WGS84_LON": 16.3968500663524,
    "STAND": ""
  },
  {
    "HALTESTELLEN_ID": 214460421,
    "TYP": "stop",
    "DIVA": 60200316,
    "NAME": "Finsterbuschstraße Nord",
    "GEMEINDE": "Wien",
    "GEMEINDE_ID": 90001,
    "WGS84_LAT": 48.172255468435,
    "WGS84_LON": 16.4998059810653,
    "STAND": ""
  },
  {
    "HALTESTELLEN_ID": 214460422,
    "TYP": "stop",
    "DIVA": 60200317,
    "NAME": "Billgasse",
    "GEMEINDE": "Wien",
    "GEMEINDE_ID": 90001,
    "WGS84_LAT": 48.2244387577568,
    "WGS84_LON": 16.4833578282131,
    "STAND": ""
  },
  {
    "HALTESTELLEN_ID": 214460423,
    "TYP": "stop",
    "DIVA": 60200318,
    "NAME": "Löschniggasse",
    "GEMEINDE": "Wien",
    "GEMEINDE_ID": 90001,
    "WGS84_LAT": 48.2227390730017,
    "WGS84_LON": 16.4806179665965,
    "STAND": ""
  },
  {
    "HALTESTELLEN_ID": 214460424,
    "TYP": "stop",
    "DIVA": 60200319,
    "NAME": "1. Haidequerstraße Mitte",
    "GEMEINDE": "Wien",
    "GEMEINDE_ID": 90001,
    "WGS84_LAT": 48.1824388258114,
    "WGS84_LON": 16.4291265345108,
    "STAND": ""
  },
  {
    "HALTESTELLEN_ID": 214460425,
    "TYP": "stop",
    "DIVA": 60200320,
    "NAME": "Dammhaufengasse",
    "GEMEINDE": "Wien",
    "GEMEINDE_ID": 90001,
    "WGS84_LAT": 48.195650214293,
    "WGS84_LON": 16.4472365706386,
    "STAND": ""
  },
  {
    "HALTESTELLEN_ID": 214460426,
    "TYP": "stop",
    "DIVA": 60200321,
    "NAME": "Pfarrgasse/Traviatagasse",
    "GEMEINDE": "Wien",
    "GEMEINDE_ID": 90001,
    "WGS84_LAT": 48.1425924080468,
    "WGS84_LON": 16.3431757281262,
    "STAND": ""
  },
  {
    "HALTESTELLEN_ID": 214460427,
    "TYP": "stop",
    "DIVA": 60200322,
    "NAME": "Zimbagasse",
    "GEMEINDE": "Wien",
    "GEMEINDE_ID": 90001,
    "WGS84_LAT": 48.2061582019246,
    "WGS84_LON": 16.2192261852234,
    "STAND": ""
  },
  {
    "HALTESTELLEN_ID": 214460428,
    "TYP": "stop",
    "DIVA": 60200323,
    "NAME": "Auhof",
    "GEMEINDE": "Wien",
    "GEMEINDE_ID": 90001,
    "WGS84_LAT": 48.2075650907648,
    "WGS84_LON": 16.2182021057995,
    "STAND": ""
  },
  {
    "HALTESTELLEN_ID": 214460429,
    "TYP": "stop",
    "DIVA": 60200324,
    "NAME": "1. Haidequerstraße Süd",
    "GEMEINDE": "Wien",
    "GEMEINDE_ID": 90001,
    "WGS84_LAT": 48.1809174409433,
    "WGS84_LON": 16.4281383876983,
    "STAND": ""
  },
  {
    "HALTESTELLEN_ID": 214460430,
    "TYP": "stop",
    "DIVA": 60200325,
    "NAME": "Giefinggasse",
    "GEMEINDE": "Wien",
    "GEMEINDE_ID": 90001,
    "WGS84_LAT": 48.2683057947301,
    "WGS84_LON": 16.4259105657936,
    "STAND": ""
  },
  {
    "HALTESTELLEN_ID": 214460432,
    "TYP": "stop",
    "DIVA": 60200327,
    "NAME": "Rodaun Wohnheim",
    "GEMEINDE": "Wien",
    "GEMEINDE_ID": 90001,
    "WGS84_LAT": 48.1272567756318,
    "WGS84_LON": 16.2289729060561,
    "STAND": ""
  },
  {
    "HALTESTELLEN_ID": 214460433,
    "TYP": "stop",
    "DIVA": 60200328,
    "NAME": "Heinrich-von-Buol-Gasse",
    "GEMEINDE": "Wien",
    "GEMEINDE_ID": 90001,
    "WGS84_LAT": 48.2649511429323,
    "WGS84_LON": 16.4257039532783,
    "STAND": ""
  },
  {
    "HALTESTELLEN_ID": 214460434,
    "TYP": "stop",
    "DIVA": 60200329,
    "NAME": "Fischergrund",
    "GEMEINDE": "Wien",
    "GEMEINDE_ID": 90001,
    "WGS84_LAT": 48.2155207688772,
    "WGS84_LON": 16.4408854815799,
    "STAND": ""
  },
  {
    "HALTESTELLEN_ID": 214460435,
    "TYP": "stop",
    "DIVA": 60200330,
    "NAME": "Fichtnergasse",
    "GEMEINDE": "Wien",
    "GEMEINDE_ID": 90001,
    "WGS84_LAT": 48.1871224909987,
    "WGS84_LON": 16.288881552354,
    "STAND": ""
  },
  {
    "HALTESTELLEN_ID": 214460436,
    "TYP": "stop",
    "DIVA": 60200331,
    "NAME": "Florian-Geyer-Gasse",
    "GEMEINDE": "Wien",
    "GEMEINDE_ID": 90001,
    "WGS84_LAT": 48.1569346916079,
    "WGS84_LON": 16.3918015344556,
    "STAND": ""
  },
  {
    "HALTESTELLEN_ID": 214460437,
    "TYP": "stop",
    "DIVA": 60200332,
    "NAME": "Florian-Hedorfer-Straße",
    "GEMEINDE": "Wien",
    "GEMEINDE_ID": 90001,
    "WGS84_LAT": 48.1656172267256,
    "WGS84_LON": 16.4312555417341,
    "STAND": ""
  },
  {
    "HALTESTELLEN_ID": 214460438,
    "TYP": "stop",
    "DIVA": 60200333,
    "NAME": "Florianigasse",
    "GEMEINDE": "Wien",
    "GEMEINDE_ID": 90001,
    "WGS84_LAT": 48.2127911946835,
    "WGS84_LON": 16.3456820277689,
    "STAND": ""
  },
  {
    "HALTESTELLEN_ID": 214460439,
    "TYP": "stop",
    "DIVA": 60200334,
    "NAME": "Floridsdorf",
    "GEMEINDE": "Wien",
    "GEMEINDE_ID": 90001,
    "WGS84_LAT": 48.2567938161037,
    "WGS84_LON": 16.4002995970434,
    "STAND": ""
  },
  {
    "HALTESTELLEN_ID": 214460440,
    "TYP": "stop",
    "DIVA": 60200335,
    "NAME": "Joseph-Lister-Gasse",
    "GEMEINDE": "Wien",
    "GEMEINDE_ID": 90001,
    "WGS84_LAT": 48.1751429552059,
    "WGS84_LON": 16.2695318411341,
    "STAND": ""
  },
  {
    "HALTESTELLEN_ID": 214460441,
    "TYP": "stop",
    "DIVA": 60200336,
    "NAME": "Flotowgasse",
    "GEMEINDE": "Wien",
    "GEMEINDE_ID": 90001,
    "WGS84_LAT": 48.2405889308704,
    "WGS84_LON": 16.3388188989983,
    "STAND": ""
  },
  {
    "HALTESTELLEN_ID": 214460442,
    "TYP": "stop",
    "DIVA": 60200337,
    "NAME": "Flugfeldstraße",
    "GEMEINDE": "Wien",
    "GEMEINDE_ID": 90001,
    "WGS84_LAT": 48.2156584409137,
    "WGS84_LON": 16.5043334900973,
    "STAND": ""
  },
  {
    "HALTESTELLEN_ID": 214460443,
    "TYP": "stop",
    "DIVA": 60200338,
    "NAME": "Flötzersteig",
    "GEMEINDE": "Wien",
    "GEMEINDE_ID": 90001,
    "WGS84_LAT": 48.2038352540677,
    "WGS84_LON": 16.2788563537833,
    "STAND": ""
  },
  {
    "HALTESTELLEN_ID": 214460444,
    "TYP": "stop",
    "DIVA": 60200339,
    "NAME": "Flötzersteigbrücke",
    "GEMEINDE": "Wien",
    "GEMEINDE_ID": 90001,
    "WGS84_LAT": 48.2071879286119,
    "WGS84_LON": 16.2907769976035,
    "STAND": ""
  },
  {
    "HALTESTELLEN_ID": 214460445,
    "TYP": "stop",
    "DIVA": 60200340,
    "NAME": "Mauerbachstraße/Baumschule",
    "GEMEINDE": "Wien",
    "GEMEINDE_ID": 90001,
    "WGS84_LAT": 48.2181245033834,
    "WGS84_LON": 16.2178966786029,
    "STAND": ""
  },
  {
    "HALTESTELLEN_ID": 214460446,
    "TYP": "stop",
    "DIVA": 60200341,
    "NAME": "Forsthausgasse",
    "GEMEINDE": "Wien",
    "GEMEINDE_ID": 90001,
    "WGS84_LAT": 48.2452373688674,
    "WGS84_LON": 16.3749850723369,
    "STAND": ""
  },
  {
    "HALTESTELLEN_ID": 214460447,
    "TYP": "stop",
    "DIVA": 60200342,
    "NAME": "Frachtenbahnhof Lobau Hafen",
    "GEMEINDE": "Wien",
    "GEMEINDE_ID": 90001,
    "WGS84_LAT": 48.1864217652497,
    "WGS84_LON": 16.4776355598532,
    "STAND": ""
  },
  {
    "HALTESTELLEN_ID": 214460448,
    "TYP": "stop",
    "DIVA": 60200343,
    "NAME": "Franz-Asenbauer-Gasse",
    "GEMEINDE": "Wien",
    "GEMEINDE_ID": 90001,
    "WGS84_LAT": 48.1547413550189,
    "WGS84_LON": 16.2712745727853,
    "STAND": ""
  },
  {
    "HALTESTELLEN_ID": 214460449,
    "TYP": "stop",
    "DIVA": 60200344,
    "NAME": "Franz-Josef-Spital",
    "GEMEINDE": "Wien",
    "GEMEINDE_ID": 90001,
    "WGS84_LAT": 48.174915316925,
    "WGS84_LON": 16.3488890133332,
    "STAND": ""
  },
  {
    "HALTESTELLEN_ID": 214460450,
    "TYP": "stop",
    "DIVA": 60200345,
    "NAME": "Franz-Josefs-Bahnhof",
    "GEMEINDE": "Wien",
    "GEMEINDE_ID": 90001,
    "WGS84_LAT": 48.225988773169,
    "WGS84_LON": 16.3611510169615,
    "STAND": ""
  },
  {
    "HALTESTELLEN_ID": 214460451,
    "TYP": "stop",
    "DIVA": 60200346,
    "NAME": "Krankenanstalt Rudolfstiftung",
    "GEMEINDE": "Wien",
    "GEMEINDE_ID": 90001,
    "WGS84_LAT": 48.1966202726828,
    "WGS84_LON": 16.392286624709,
    "STAND": ""
  },
  {
    "HALTESTELLEN_ID": 214460452,
    "TYP": "stop",
    "DIVA": 60200347,
    "NAME": "Franz-Pletersky-Weg",
    "GEMEINDE": "Wien",
    "GEMEINDE_ID": 90001,
    "WGS84_LAT": 48.2132700778739,
    "WGS84_LON": 16.4506232192598,
    "STAND": ""
  },
  {
    "HALTESTELLEN_ID": 214460453,
    "TYP": "stop",
    "DIVA": 60200348,
    "NAME": "Franzensbrücke",
    "GEMEINDE": "Wien",
    "GEMEINDE_ID": 90001,
    "WGS84_LAT": 48.2137908582598,
    "WGS84_LON": 16.3917296692329,
    "STAND": ""
  },
  {
    "HALTESTELLEN_ID": 214460454,
    "TYP": "stop",
    "DIVA": 60200349,
    "NAME": "Franzosenweg",
    "GEMEINDE": "Wien",
    "GEMEINDE_ID": 90001,
    "WGS84_LAT": 48.1401526822458,
    "WGS84_LON": 16.3827914321559,
    "STAND": ""
  },
  {
    "HALTESTELLEN_ID": 214460455,
    "TYP": "stop",
    "DIVA": 60200350,
    "NAME": "Forchheimergasse",
    "GEMEINDE": "Wien",
    "GEMEINDE_ID": 90001,
    "WGS84_LAT": 48.1409319684464,
    "WGS84_LON": 16.3064076835472,
    "STAND": ""
  },
  {
    "HALTESTELLEN_ID": 214460456,
    "TYP": "stop",
    "DIVA": 60200351,
    "NAME": "Freesienweg",
    "GEMEINDE": "Wien",
    "GEMEINDE_ID": 90001,
    "WGS84_LAT": 48.2045896249744,
    "WGS84_LON": 16.2426272983747,
    "STAND": ""
  },
  {
    "HALTESTELLEN_ID": 214460457,
    "TYP": "stop",
    "DIVA": 60200352,
    "NAME": "Freiheitsplatz",
    "GEMEINDE": "Wien",
    "GEMEINDE_ID": 90001,
    "WGS84_LAT": 48.3014338568748,
    "WGS84_LON": 16.4162446933365,
    "STAND": ""
  },
  {
    "HALTESTELLEN_ID": 214460458,
    "TYP": "stop",
    "DIVA": 60200353,
    "NAME": "Freihofsiedlung",
    "GEMEINDE": "Wien",
    "GEMEINDE_ID": 90001,
    "WGS84_LAT": 48.242527327021,
    "WGS84_LON": 16.450272876299,
    "STAND": ""
  },
  {
    "HALTESTELLEN_ID": 214460459,
    "TYP": "stop",
    "DIVA": 60200354,
    "NAME": "Kraftwerk Freudenau",
    "GEMEINDE": "Wien",
    "GEMEINDE_ID": 90001,
    "WGS84_LAT": 48.1744240940332,
    "WGS84_LON": 16.4791357463777,
    "STAND": ""
  },
  {
    "HALTESTELLEN_ID": 214460460,
    "TYP": "stop",
    "DIVA": 60200355,
    "NAME": "Freyenthurmgasse",
    "GEMEINDE": "Wien",
    "GEMEINDE_ID": 90001,
    "WGS84_LAT": 48.2054397756961,
    "WGS84_LON": 16.2567937304053,
    "STAND": ""
  },
  {
    "HALTESTELLEN_ID": 214460462,
    "TYP": "stop",
    "DIVA": 60200357,
    "NAME": "Friedensbrücke",
    "GEMEINDE": "Wien",
    "GEMEINDE_ID": 90001,
    "WGS84_LAT": 48.2270300699041,
    "WGS84_LON": 16.3648790253906,
    "STAND": ""
  },
  {
    "HALTESTELLEN_ID": 214460463,
    "TYP": "stop",
    "DIVA": 60200358,
    "NAME": "Baumgarten",
    "GEMEINDE": "Wien",
    "GEMEINDE_ID": 90001,
    "WGS84_LAT": 48.1990633013251,
    "WGS84_LON": 16.2714901684535,
    "STAND": ""
  },
  {
    "HALTESTELLEN_ID": 214460464,
    "TYP": "stop",
    "DIVA": 60200359,
    "NAME": "Friedensgasse",
    "GEMEINDE": "Wien",
    "GEMEINDE_ID": 90001,
    "WGS84_LAT": 48.2032545006422,
    "WGS84_LON": 16.4024645368781,
    "STAND": ""
  },
  {
    "HALTESTELLEN_ID": 214460465,
    "TYP": "stop",
    "DIVA": 60200360,
    "NAME": "Mariabrunn Kirche",
    "GEMEINDE": "Wien",
    "GEMEINDE_ID": 90001,
    "WGS84_LAT": 48.2077327174967,
    "WGS84_LON": 16.2314163236289,
    "STAND": ""
  },
  {
    "HALTESTELLEN_ID": 214460466,
    "TYP": "stop",
    "DIVA": 60200361,
    "NAME": "Friedjunggasse",
    "GEMEINDE": "Wien",
    "GEMEINDE_ID": 90001,
    "WGS84_LAT": 48.1652217808796,
    "WGS84_LON": 16.4191282853985,
    "STAND": ""
  },
  {
    "HALTESTELLEN_ID": 214460467,
    "TYP": "stop",
    "DIVA": 60200362,
    "NAME": "Obkirchergasse",
    "GEMEINDE": "Wien",
    "GEMEINDE_ID": 90001,
    "WGS84_LAT": 48.2457338951867,
    "WGS84_LON": 16.3421336823967,
    "STAND": ""
  },
  {
    "HALTESTELLEN_ID": 214460468,
    "TYP": "stop",
    "DIVA": 60200363,
    "NAME": "Friedrich-Engels-Platz",
    "GEMEINDE": "Wien",
    "GEMEINDE_ID": 90001,
    "WGS84_LAT": 48.2442742137092,
    "WGS84_LON": 16.3797281770371,
    "STAND": ""
  },
  {
    "HALTESTELLEN_ID": 214460469,
    "TYP": "stop",
    "DIVA": 60200364,
    "NAME": "Friedstraße",
    "GEMEINDE": "Wien",
    "GEMEINDE_ID": 90001,
    "WGS84_LAT": 48.2454407657738,
    "WGS84_LON": 16.4046384598657,
    "STAND": ""
  },
  {
    "HALTESTELLEN_ID": 214460470,
    "TYP": "stop",
    "DIVA": 60200365,
    "NAME": "Frödenplatz",
    "GEMEINDE": "Wien",
    "GEMEINDE_ID": 90001,
    "WGS84_LAT": 48.1553046799216,
    "WGS84_LON": 16.3586537004716,
    "STAND": ""
  },
  {
    "HALTESTELLEN_ID": 214460471,
    "TYP": "stop",
    "DIVA": 60200366,
    "NAME": "Frömmlgasse",
    "GEMEINDE": "Wien",
    "GEMEINDE_ID": 90001,
    "WGS84_LAT": 48.2562495492994,
    "WGS84_LON": 16.3921249279579,
    "STAND": ""
  },
  {
    "HALTESTELLEN_ID": 214460472,
    "TYP": "stop",
    "DIVA": 60200367,
    "NAME": "Fröschelgasse",
    "GEMEINDE": "Wien",
    "GEMEINDE_ID": 90001,
    "WGS84_LAT": 48.2519310952393,
    "WGS84_LON": 16.3205202166607,
    "STAND": ""
  },
  {
    "HALTESTELLEN_ID": 214460473,
    "TYP": "stop",
    "DIVA": 60200368,
    "NAME": "Flurschützstr./Längenfeldgasse",
    "GEMEINDE": "Wien",
    "GEMEINDE_ID": 90001,
    "WGS84_LAT": 48.1793540811087,
    "WGS84_LON": 16.3400675572432,
    "STAND": ""
  },
  {
    "HALTESTELLEN_ID": 214460474,
    "TYP": "stop",
    "DIVA": 60200369,
    "NAME": "Fultonstraße",
    "GEMEINDE": "Wien",
    "GEMEINDE_ID": 90001,
    "WGS84_LAT": 48.2532170996102,
    "WGS84_LON": 16.4140438208904,
    "STAND": ""
  },
  {
    "HALTESTELLEN_ID": 214460475,
    "TYP": "stop",
    "DIVA": 60200370,
    "NAME": "Funkengerngasse",
    "GEMEINDE": "Wien",
    "GEMEINDE_ID": 90001,
    "WGS84_LAT": 48.2153830964704,
    "WGS84_LON": 16.2934360108445,
    "STAND": ""
  },
  {
    "HALTESTELLEN_ID": 214460476,
    "TYP": "stop",
    "DIVA": 60200371,
    "NAME": "Seegasse",
    "GEMEINDE": "Wien",
    "GEMEINDE_ID": 90001,
    "WGS84_LAT": 48.2230682417096,
    "WGS84_LON": 16.3613935620882,
    "STAND": ""
  },
  {
    "HALTESTELLEN_ID": 214460477,
    "TYP": "stop",
    "DIVA": 60200372,
    "NAME": "Ottakringer Friedhof",
    "GEMEINDE": "Wien",
    "GEMEINDE_ID": 90001,
    "WGS84_LAT": 48.2140781831019,
    "WGS84_LON": 16.3015208484016,
    "STAND": ""
  },
  {
    "HALTESTELLEN_ID": 214460478,
    "TYP": "stop",
    "DIVA": 60200373,
    "NAME": "Kaltenleutgebner Str. 10/63",
    "GEMEINDE": "Wien",
    "GEMEINDE_ID": 90001,
    "WGS84_LAT": 48.1318255704612,
    "WGS84_LON": 16.2463193741925,
    "STAND": ""
  },
  {
    "HALTESTELLEN_ID": 214460479,
    "TYP": "stop",
    "DIVA": 60200374,
    "NAME": "Altes Gasthaus Maut",
    "GEMEINDE": "Wien",
    "GEMEINDE_ID": 90001,
    "WGS84_LAT": 48.1290855415083,
    "WGS84_LON": 16.232880577542,
    "STAND": ""
  },
  {
    "HALTESTELLEN_ID": 214460480,
    "TYP": "stop",
    "DIVA": 60200375,
    "NAME": "Gasthaus Zum Friedhof",
    "GEMEINDE": "Wien",
    "GEMEINDE_ID": 90001,
    "WGS84_LAT": 48.2964558576545,
    "WGS84_LON": 16.4332138690535,
    "STAND": ""
  },
  {
    "HALTESTELLEN_ID": 214460481,
    "TYP": "stop",
    "DIVA": 60200376,
    "NAME": "Gatterburggasse",
    "GEMEINDE": "Wien",
    "GEMEINDE_ID": 90001,
    "WGS84_LAT": 48.2392008983747,
    "WGS84_LON": 16.3492303731412,
    "STAND": ""
  },
  {
    "HALTESTELLEN_ID": 214460482,
    "TYP": "stop",
    "DIVA": 60200377,
    "NAME": "Gattergasse",
    "GEMEINDE": "Wien",
    "GEMEINDE_ID": 90001,
    "WGS84_LAT": 48.1605121459896,
    "WGS84_LON": 16.422550866631,
    "STAND": ""
  },
  {
    "HALTESTELLEN_ID": 214460483,
    "TYP": "stop",
    "DIVA": 60200378,
    "NAME": "Gatterhölzl",
    "GEMEINDE": "Wien",
    "GEMEINDE_ID": 90001,
    "WGS84_LAT": 48.1758797774484,
    "WGS84_LON": 16.3187595187039,
    "STAND": ""
  },
  {
    "HALTESTELLEN_ID": 214460484,
    "TYP": "stop",
    "DIVA": 60200379,
    "NAME": "Gaudenzdorfer Gürtel",
    "GEMEINDE": "Wien",
    "GEMEINDE_ID": 90001,
    "WGS84_LAT": 48.1872422722193,
    "WGS84_LON": 16.3430948797507,
    "STAND": ""
  },
  {
    "HALTESTELLEN_ID": 214460485,
    "TYP": "stop",
    "DIVA": 60200380,
    "NAME": "Gaußplatz",
    "GEMEINDE": "Wien",
    "GEMEINDE_ID": 90001,
    "WGS84_LAT": 48.2262820140478,
    "WGS84_LON": 16.3699095909816,
    "STAND": ""
  },
  {
    "HALTESTELLEN_ID": 214460486,
    "TYP": "stop",
    "DIVA": 60200381,
    "NAME": "Gaßmannstraße",
    "GEMEINDE": "Wien",
    "GEMEINDE_ID": 90001,
    "WGS84_LAT": 48.1747715448584,
    "WGS84_LON": 16.3133426775406,
    "STAND": ""
  },
  {
    "HALTESTELLEN_ID": 214460487,
    "TYP": "stop",
    "DIVA": 60200382,
    "NAME": "Geiereckstraße",
    "GEMEINDE": "Wien",
    "GEMEINDE_ID": 90001,
    "WGS84_LAT": 48.1750351266725,
    "WGS84_LON": 16.3992216187024,
    "STAND": ""
  },
  {
    "HALTESTELLEN_ID": 214460488,
    "TYP": "stop",
    "DIVA": 60200383,
    "NAME": "Geistingergasse",
    "GEMEINDE": "Wien",
    "GEMEINDE_ID": 90001,
    "WGS84_LAT": 48.2453689787227,
    "WGS84_LON": 16.3627500181672,
    "STAND": ""
  },
  {
    "HALTESTELLEN_ID": 214460489,
    "TYP": "stop",
    "DIVA": 60200384,
    "NAME": "Gellertplatz",
    "GEMEINDE": "Wien",
    "GEMEINDE_ID": 90001,
    "WGS84_LAT": 48.1750111647454,
    "WGS84_LON": 16.3826387185576,
    "STAND": ""
  },
  {
    "HALTESTELLEN_ID": 214460490,
    "TYP": "stop",
    "DIVA": 60200385,
    "NAME": "Gemeindeberggasse",
    "GEMEINDE": "Wien",
    "GEMEINDE_ID": 90001,
    "WGS84_LAT": 48.1811809911617,
    "WGS84_LON": 16.2648606016567,
    "STAND": ""
  },
  {
    "HALTESTELLEN_ID": 214460491,
    "TYP": "stop",
    "DIVA": 60200386,
    "NAME": "General-Motors-Werk",
    "GEMEINDE": "Wien",
    "GEMEINDE_ID": 90001,
    "WGS84_LAT": 48.2177115060564,
    "WGS84_LON": 16.5031297476166,
    "STAND": ""
  },
  {
    "HALTESTELLEN_ID": 214460492,
    "TYP": "stop",
    "DIVA": 60200387,
    "NAME": "Genochplatz",
    "GEMEINDE": "Wien",
    "GEMEINDE_ID": 90001,
    "WGS84_LAT": 48.2291604730716,
    "WGS84_LON": 16.4557975152963,
    "STAND": ""
  },
  {
    "HALTESTELLEN_ID": 214460493,
    "TYP": "stop",
    "DIVA": 60200388,
    "NAME": "Brünner Str./Hanreitergasse",
    "GEMEINDE": "Wien",
    "GEMEINDE_ID": 90001,
    "WGS84_LAT": 48.2841432348118,
    "WGS84_LON": 16.4130107583137,
    "STAND": ""
  },
  {
    "HALTESTELLEN_ID": 214460494,
    "TYP": "stop",
    "DIVA": 60200389,
    "NAME": "Gerhardusgasse",
    "GEMEINDE": "Wien",
    "GEMEINDE_ID": 90001,
    "WGS84_LAT": 48.2316976914714,
    "WGS84_LON": 16.3662534477753,
    "STAND": ""
  },
  {
    "HALTESTELLEN_ID": 214460495,
    "TYP": "stop",
    "DIVA": 60200390,
    "NAME": "Geringergasse",
    "GEMEINDE": "Wien",
    "GEMEINDE_ID": 90001,
    "WGS84_LAT": 48.1680018203818,
    "WGS84_LON": 16.4259644647107,
    "STAND": ""
  },